Unnamed: 0,latitude,longitude,name,Area
0,1.313659,1.2324,All,None
1,1.313659229,103.7037147,OPP CEVA LOGISTICS,None
2,1.41605745,103.7005846,AFT TRACK 13,None
3,1.380208759,103.7708237,BLK 239,None
4,1.33653504,103.9555562,GRACE INDEPENDENT CH,None
5,1.291127381,103.8024873,BLK 166,None
6,1.353766019,103.9461247,TAMPINES STN/INT,None
7,1.360652845,103.8598405,AFT CORFE PL,None
8,1.307580859,103.6938362,PEC LTD,None
9,1.372358179,103.8542504,BLK 527,None
10,1.350032954,103.7164453,BLK 536,None
11,1.346490131,103.9559075,BLK 148,None
12,1.327895782,103.6849251,CONTAINERS PRINTERS,None
13,1.340000384,103.7794382,OPP BT TIMAH PLAZA,None
14,1.33392083,103.6448815,OPTO-PHARM,None
15,1.442535022,103.7868768,BLK 808,None
16,1.281103867,103.8185213,AFT BT MERAH CTRL,None
17,1.311811435,103.8471805,OPP PARISH OF CHRIST CH,None
18,1.363794376,103.7492261,ST ANTHONY'S PR SCH,None
19,1.344166299,103.8757024,GAMBIR RIDGE,None
20,1.441470802,103.7754954,AFT BLK 1,None
21,1.443625067,103.795645,BLK 747A CP,None
22,1.33291185,103.9266505,BLK 550,None
23,1.322944283,103.9250961,OPP BLK 32,None
24,1.397363714,103.8889545,FARMWAY STN EXIT A,None
25,1.292705421,103.849832,GRAND PARK CITY HALL,None
26,1.336366588,103.8570955,BLK 17A,None
27,1.304675003,103.7646251,BLK 601,None
28,1.39696814,103.8897583,FARMWAY STN EXIT B,None
29,1.37406621,103.9611669,BLK 231A CP,None
30,1.369405234,103.8878236,HOUGANG SWIM CPLX,None
31,1.364686464,103.9082169,AFT JLN TELAWI,None
32,1.314543411,103.9099673,AFT JOO CHIAT PL,None
33,1.385630609,103.8483242,OPP SBST ANG MO KIO DEPOT,None
34,1.389785392,103.8369557,OPP FUDU WALK P/G,None
35,1.307178307,103.917586,CHIJ KATONG CON,None
36,1.305117744,103.8829557,OPP MOUNBATTEN STN,None
37,1.301152972,103.897498,OPP TG KATONG RD STH P/G,None
38,1.370823734,103.9800507,OPP SELARANG PK DRUG REH.,None
39,1.380384849,103.9463345,BEF PASIR RIS AVE,None
40,1.300711328,103.8410594,ORCHARD PLAZA,None
41,1.35893383,103.7620221,OPP HILLBROOKS,None
42,1.437087522,103.7254887,AFT NEO TIEW RD,None
43,1.289852072,103.7749663,THE CRYSTAL TABERNACLE CH,None
44,1.364570927,103.9633384,BLK 269A,None
45,1.440828346,103.82474,AFT SEMBAWANG SHOP CTR,None
46,1.299865506,103.8408469,WINSLAND HSE,None
47,1.350810225,103.9335462,BLK 835,None
48,1.319847932,103.7445638,BEF TEBAN GDNS RD,None
49,1.414644839,103.8618836,OPP YOUTH FLYING CLUB,None
50,1.316241894,103.8060271,FARRER RD MKT,None
51,1.277050056,103.8180083,SAFRA MT FABER,None
52,1.38106844,103.8456007,YIO CHU KANG INT,None
53,1.324800945,103.8421078,OPP THOMSON MED CTR,None
54,1.357657185,103.9555861,TAMPINES EAST STN EXIT D,None
55,1.271644334,103.8630594,OPP MARINA STH PIER STN,None
56,1.343664494,103.8738994,AFT UPP S'GOON RD,None
57,1.28585291,103.7858569,LP 30,None
58,1.336268099,103.8432611,OPP BLK 139A,None
59,1.324224431,103.6489705,AFT TUAS AVE 6,None
60,1.418651931,103.7545687,AFT LP 234,None
61,1.334636194,103.7878561,OPP THE NEXUS,None
62,1.37981846,103.8764998,AFT ANG MO KIO AVE 5,None
63,1.376162101,103.8393017,OPP BLK 155,None
64,1.312969406,103.9278299,OPP GOODWILL CT,None
65,1.448422496,103.8219871,BEF SEMBAWANG STN,None
66,1.341012926,103.836663,MT ALVERNIA HOSP,None
67,1.37437275,103.7266485,OPP TRACK 14,None
68,1.316143409,103.9447292,AFT BEDOK STH AVE 3,None
69,1.356026399,103.7191969,BEF HONG KAH FLYOVER,None
70,1.389517014,103.8707145,AFT SENGKANG WEST RD,None
71,1.328211734,103.9028899,BLK 318,None
72,1.428133849,103.7900929,AFT INNOVA PRI SCH,None
73,1.347277202,103.7103266,BLK 176,None
74,1.283662095,103.8144893,BLK 1003,None
75,1.33633592,103.8435683,BLK 139A,None
76,1.336924751,103.967817,AFT CHANGI BIZ PK CRES,None
77,1.286267507,103.7837281,GALEN,None
78,1.300412707,103.8361586,NATL YOUTH COUNCIL,None
79,1.376009023,103.8558211,ITE COLLEGE CTRL,None
80,1.29930981,103.8171352,OPP CHATSWORTH RD,None
81,1.31546831,103.7781391,OPP VILLAGE TWRS,None
82,1.350983296,103.7211087,BLK 457,None
83,1.323706031,103.7098079,OPP TRACTOR RD,None
84,1.399925059,103.9106984,OPP BLK 188,None
85,1.29187294,103.8144967,OPP SIS BLDG,None
86,1.333526109,103.6436664,OPP KEE WEE HUP KEE,None
87,1.340551418,103.6942912,BLK 978,None
88,1.297771326,103.853255,ST JOSEPH'S CH,None
89,1.293874779,103.789447,BEF AYER RAJAH CRES,None
90,1.388882091,103.9088522,OPP BLK 178A,None
91,1.33384021,103.8984462,CYCLE & CARRIAGE,None
92,1.277071186,103.8023588,ALEXANDRA PT,None
93,1.330226802,103.8397479,OPP OLD POLICE ACAD,None
94,1.32229737,103.6775286,M.C PACKAGING PTE LTD,None
95,1.338897275,103.6887111,JUYING PR SCH,None
96,1.388010543,103.8704455,OPP THE GREENWICH,None
97,1.274632357,103.8018235,ALEXANDRA RETAIL CTR,None
98,1.274497064,103.8021608,OPP ALEXANDRA RETAIL CTR,None
99,1.446491188,103.7981127,OPP W'LANDS MART,None
100,1.376248191,103.8450013,BEF ANG MO KIO LIB,None
101,1.434451338,103.8016953,BLK 630,None
102,1.337659626,103.8870639,ASIAWIDE IND BLDG,None
103,1.383275756,103.8932605,BUANGKOK STN EXIT B,None
104,1.445996127,103.807181,OPP SEAGATE,None
105,1.308629955,103.890554,BEF OLD AIRPORT RD,None
106,1.377775171,103.8968871,OPP BLK 458,None
107,1.385168119,103.8228259,AFT TAGORE DR,None
108,1.306307507,103.7360541,BAN JOO,None
109,1.339695218,103.6878216,BLK 920,None
110,1.322628462,103.9224348,CHAI CHEE IND PK,None
111,1.385377683,103.7629239,BLK 617,None
112,1.328417183,103.8708013,BEF SIEMENS CTR,None
113,1.339828862,103.7568953,MIDVIEW BLDG,None
114,1.433093886,103.7811833,BLK 347,None
115,1.393027471,103.901302,ST ANNE'S CH,None
116,1.298920571,103.7743733,YUSOF ISHAK HSE,None
117,1.385387024,103.8907563,BEF SENGKANG EAST AVE,None
118,1.33563695,103.8636993,BLK 120,None
119,1.302850136,103.8616456,SULTAN PLAZA,None
120,1.304922925,103.7626407,BLK 730,None
121,1.43970525,103.8027247,BLK 683A,None
122,1.317878244,103.7859072,COLD STORAGE JELITA,None
123,1.290917949,103.8073697,OPP LEA HIN HARDWARE FTY,None
124,1.43204738,103.7746001,OPP MARSILING STN,None
125,1.342188334,103.981848,AIRPORT POLICE STN,None
126,1.327023284,103.8920934,AZTECH BLDG,None
127,1.352225202,103.7077767,CORPORATION PR SCH,None
128,1.365130897,103.7478064,BLK 334,None
129,1.346910845,103.9629145,OPP MERA TERR P/G,None
130,1.302137418,103.8342562,OPP NGEE ANN CITY,None
131,1.382687134,103.9385965,OPP BLK 713,None
132,1.439993688,103.778422,BLK 12,None
133,1.292379911,103.8057256,OPP QUEENS,None
134,1.391979309,103.8800414,LAYAR STN EXIT A / BLK 417A,None
135,1.329359852,103.9507384,AFT BEDOK RD,None
136,1.379877094,103.8768693,BLK 988B,None
137,1.288362333,103.8125051,BLK 52,None
138,1.373458245,103.9597945,OPP BLK 482,None
139,1.370669203,103.8823695,OPP XINMIN PR SCH,None
140,1.297202232,103.8722794,PEBBLE BAY,None
141,1.329047881,103.6370901,BEF PIONEER RD,None
142,1.446670889,103.8228039,BLK 311,None
143,1.438371045,103.7431923,AFT KRANJI LK,None
144,1.340567325,103.7441254,OPP BLK 288D,None
145,1.350839352,103.8898555,BLK 172,None
146,1.347214246,103.6941297,BLK 821,None
147,1.288147789,103.8116112,SHRIRO HSE,None
148,1.303786262,103.8967689,BEF KATONG PO,None
149,1.435612544,103.7486135,AFT SG KADUT DR,None
150,1.431907293,103.7862592,AFT BLK 353,None
151,1.344141159,103.7582776,BLK 290H,None
152,1.33567827,103.7427326,J GATEWAY,None
153,1.446507924,103.8255817,BEF CANBERRA DR,None
154,1.44648878,103.8251386,OPP CANBERRA DR,None
155,1.281299517,103.8127259,BLK 118,None
156,1.340912961,103.7026242,BLK 668D,None
157,1.382447539,103.8797354,BLK 986B,None
158,1.365105521,103.9752498,LLOYD LEAS WORK REL CAMP,None
159,1.375646201,103.9465269,BLK 502,None
160,1.374873881,103.9619358,BET BLKS 232 / 233,None
161,1.455274764,103.831014,AFT QUEEN'S AVE,None
162,1.372011249,103.6946649,AFT CEMY OFFICE,None
163,1.380619272,103.697355,OPP HQ 5TH SIB CAMP I,None
164,1.388659617,103.8951128,OPP BLK 204 CP,None
165,1.370158304,103.8453247,OPP AL-MUTTAQIN MQUE,None
166,1.349803213,103.7272835,BLK 490,None
167,1.315333825,103.8834446,AFT ALJUNIED STN,None
168,1.383287537,103.7409389,BLK 429A CP,None
169,1.410565648,103.7745563,OPP MANDAI CAMP 2,None
170,1.327699857,103.7448393,OPP INTL BUSINESS PK,None
171,1.377507567,103.9007164,Bef Blk 471B,None
172,1.292941592,103.8070579,QUEENS CONDO,None
173,1.390523995,103.8843333,BLK 311A,None
174,1.302505446,103.8197202,AFT ROCHALIE DR,None
175,1.323041695,103.6865268,STAMFORD TYRE,None
176,1.354024169,103.7285421,AFT TRACK 22,None
177,1.42298343,103.851397,BEF YISHUN AVE 6,None
178,1.301581965,103.8754407,STADIUM STN,None
179,1.415892528,103.8394735,NAVAL BASE PR SCH,None
180,1.312085457,103.8402195,NEWTON FC,None
181,1.44570134,103.7996094,BLK 722,None
182,1.346972618,103.847105,OPP RAFFLES INSTN,None
183,1.432246874,103.8399136,BLK 241,None
184,1.271225263,103.8629306,MARINA STH PIER STN,None
185,1.38334137,103.8405977,OPP ANG MO KIO CMTY HOSP,None
186,1.303155612,103.8649779,GOLDEN MILE CPLX,None
187,1.436901521,103.7827442,OPP BLK 106,None
188,1.344796932,103.7520565,OPP BT VIEW SEC SCH,None
189,1.376750818,103.8285154,AFT YIO CHU KANG RD,None
190,1.430164079,103.8378028,OPP BLK 201,None
191,1.317771097,103.9063496,AFT KG EUNOS,None
192,1.339437636,103.7682489,AFT TOH TUCK TERR,None
193,1.325867844,103.8344627,CATHOLIC JC,None
194,1.312578563,103.8715256,KALLANG STN / OPP BLK 2C,None
195,1.307541793,103.8797354,S.A. DEAF,None
196,1.309670084,103.7600207,BLK 512,None
197,1.333950579,103.8514764,BLK 73,None
198,1.338324892,103.7192358,BLK 367,None
199,1.329162127,103.9246647,BLK 45,None
200,1.312497335,103.8731963,AFT LOR 1 GEYLANG,None
201,1.382295375,103.938559,BLK 713,None
202,1.325630132,103.7930517,OPP GARLICK VILLE,None
203,1.340147952,103.7160215,OPP LAKEPOINT CONDO,None
204,1.352357973,103.7255281,BLK 416,None
205,1.309500356,103.7821001,OPP SP SMA,None
206,1.33453807,103.7385615,BLK 124,None
207,1.462546999,103.8100284,OPP W'LANDS SUNNY FOOD,None
208,1.411599805,103.7613696,OPP MANDAI CD TRG VILLAGE,None
209,1.332236778,103.64981,BEF TUAS AVE 10,None
210,1.444605425,103.7892675,OPP BLK 872,None
211,1.354489905,103.8469189,OPP BLK 203,None
212,1.370263345,103.9571749,BLK 446,None
213,1.365814775,103.7753102,AFT DAIRY FARM RD,None
214,1.328588579,103.7037503,AFT SOON LEE RD,None
215,1.353323353,103.9344578,OPP BLK 853,None
216,1.326231714,103.8748642,BEF LOR BAKAR BATU,None
217,1.379060395,103.8275884,OPP MEADOWS /@ PEIRCE,None
218,1.341296242,103.8270911,LP 52,None
219,1.29894816,103.8964884,HSE 189,None
220,1.376446402,103.744036,BEF CHOA CHU KANG MKT,None
221,1.314478605,103.9374472,AFT SENNET RD,None
222,1.379289553,103.9643731,OPP LOYANG TOWNHOUSE,None
223,1.3027347,103.905037,OPP PARKWAY PARADE,None
224,1.29323953,103.8578693,SUNTEC CONVENTION CTR,None
225,1.358671165,103.761951,HILLBROOKS,None
226,1.31430714,103.8659145,BEF KALLANG PL,None
227,1.334651622,103.6516205,RAFFLES COUNTRY CLUB,None
228,1.362661999,103.9009322,OPP DEFU AVE 2,None
229,1.439769625,103.7805647,OPP BLK 120,None
230,1.326714582,103.9005174,BLK 343,None
231,1.328865828,103.8970659,BLK 3024,None
232,1.375813997,103.9742018,WACKER CHEMICALS,None
233,1.305200002,103.8834204,MOUNTBATTEN STN EXIT B,None
234,1.372394995,103.7042356,OPP JLN BERSERI,None
235,1.342260847,103.8360153,MACRITCHIE RESERVOIR,None
236,1.352091642,103.9610686,BLK 343,None
237,1.383760748,103.7660489,BET BLKS 502/503,None
238,1.378520564,103.9787083,OPP LOYANG WAY 4 / SOXAL,None
239,1.367251396,103.9683784,BEF NEW LOYANG LK,None
240,1.354974201,103.8368745,BLK 25,None
241,1.34940033,103.6973207,BLK 762,None
242,1.379235154,103.7475872,BLK 239,None
243,1.378719675,103.8685904,AFT ANG MO KIO IND PK 2,None
244,1.336327651,103.8979067,OPP COMFORT DRIVING CTR,None
245,1.399776169,103.8724504,AFT TPE,None
246,1.347557166,103.7124628,BLK 210,None
247,1.345724055,103.6928771,BLK 827,None
248,1.374408634,103.8929128,OPP PUNGGOL CC,None
249,1.301461859,103.752785,SWANSON PLASTICS,None
250,1.310046946,103.8053552,LIEN TWRS,None
251,1.295962585,103.8393892,AFT KIM YAM RD,None
252,1.361418507,103.9307772,AFT TAMPINES AVE 9,None
253,1.350540127,103.70115,AFT WESTWOOD AVE,None
254,1.364160521,103.8610475,OPP BLOXHOME DR,None
255,1.33189904,103.7163263,CLARIANT S'PORE,None
256,1.379464709,103.9382122,BLK 651,None
257,1.379725893,103.8886511,OPP HOUGANG G. SHOP MALL,None
258,1.36390574,103.8524096,BLK 354,None
259,1.375740305,103.8716517,YIO CHU KANG AMENITY CTR,None
260,1.402403366,103.816858,AFT UPP THOMSON RD,None
261,1.293738826,103.6219215,YONG NAM,None
262,1.337659518,103.819458,AFT LORNIE WALK,None
263,1.346418928,103.7669278,BEF BT BATOK EAST AVE 6,None
264,1.435914659,103.7960034,BLK 609,None
265,1.379116545,103.8832215,BLK 911,None
266,1.32338518,103.9251537,BLK 32,None
267,1.31776971,103.9526212,UPP EAST COAST TER,None
268,1.339732699,103.8580203,BLK 227,None
269,1.371207866,103.7667259,AFT CASHEW TERR,None
270,1.343061104,103.7080535,OPP BLK 695,None
271,1.289186496,103.7769186,OPP LUXE VILLE,None
272,1.351713099,103.9506307,OPP BLK 266,None
273,1.337293697,103.7644695,AFT TOH TUCK CRES,None
274,1.296425908,103.7874688,OPP BLK 71,None
275,1.2972205,103.6662078,BEF NAM LEONG CO PTE LTD,None
276,1.319380478,103.8105053,OPP ST. MARGARET'S SEC SCH,None
277,1.336586572,103.8947468,OPP COMFORT TEST CTR,None
278,1.342520662,103.6971599,BEF BLK 717,None
279,1.360490931,103.9704067,OPP CHANGI WOMEN'S PRISON,None
280,1.356784961,103.8925788,OPP BLK 241,None
281,1.378449065,103.8844616,BLK 913,None
282,1.348447285,103.6962462,BLK 857,None
283,1.311120319,103.8713451,KALLANG STN,None
284,1.361500355,103.9348054,BLK 604A,None
285,1.370932736,103.8824512,XINMIN PR SCH,None
286,1.448503032,103.7849446,,None
287,1.445912062,103.8196345,BLK 328,None
288,1.340549768,103.6952916,BLK 704,None
289,1.362955506,103.8722525,AFT YIO CHU KANG RD,None
290,1.420774832,103.702914,AFT NEO TIEW RD,None
291,1.300463743,103.8895053,OPP SANTA FE MANSIONS,None
292,1.323477241,103.8563286,BLK 82,None
293,1.273307077,103.8006702,OPP LABRADOR PK STN,None
294,1.361451315,103.9345237,OPP BLK 601C,None
295,1.304954837,103.8254661,THE REGENT S'PORE,None
296,1.380547377,103.7627333,OPP BLK 183,None
297,1.299521531,103.8550815,AFT BUGIS STN EXIT C,None
298,1.337411283,103.9225212,BLK 713,None
299,1.374896845,103.8806163,BLK 946A,None
300,1.351534088,103.743718,BLK 140,None
301,1.300122301,103.8551933,OPP BUGIS STN EXIT C,None
302,1.423299562,103.8512916,AFT YISHUN AVE 6,None
303,1.380833178,103.7387712,BLK 426,None
304,1.367167476,103.8665396,OPP KINGSWEAR AVE,None
305,1.330387834,103.7079725,OPP PREMIER MILK PTE LTD,None
306,1.323883838,103.7429139,AFT JURONG TOWN HALL RD,None
307,1.310734073,103.9192886,AFT JLN BUROH PERINDU,None
308,1.38718802,103.9084327,BLK 160,None
309,1.323265327,103.8811569,OPP BLK 125,None
310,1.33824514,103.8553766,OPP BLK 5,None
311,1.285966325,103.8112841,OPP PACIFIC TECH CTR,None
312,1.343625095,103.7310066,OPP BLK 350,None
313,1.348222834,103.8493188,BLK 501,None
314,1.296064556,103.8967464,TG KATONG FLYOVER,None
315,1.445133892,103.7298206,SG BULOH WETLAND RESERVE,None
316,1.386783964,103.8925616,BLK 200B,None
317,1.343817951,103.6382932,BEF TUAS TER,None
318,1.310125296,103.8799085,AFT LOR 14 GEYLANG,None
319,1.306995778,103.8800478,OPP S.A. DEAF,None
320,1.345319519,103.8513134,BLK 131,None
321,1.453359798,103.8192407,BLK 424A CP,None
322,1.364917299,103.8279533,BEF ANG MO KIO AVE 1,None
323,1.375955315,103.9399131,BLK 640,None
324,1.368374069,103.951682,OPP BLK 555,None
325,1.363427612,103.9699093,AFT TOH CL,None
326,1.323018072,103.8526272,OPP BALESTIER PT,None
327,1.274209954,103.7984935,MAPLETREE BUSINESS CITY,None
328,1.351192409,103.7561695,BLK 242,None
329,1.358846017,103.8890257,BLK 232,None
330,1.374290646,103.8548655,BLK 532,None
331,1.431290136,103.8265221,OPP BLK 101,None
332,1.345214676,103.70656,BLK 263,None
333,1.368692209,103.95819,BLK 442,None
334,1.318978577,103.6496906,AFT TUAS CRES,None
335,1.310798005,103.8831901,OPP BLK 56,None
336,1.325364152,103.8139692,OPP S'PORE BIBLE COLLEGE,None
337,1.303589973,103.6659025,OPP ASIA IND GASES,None
338,1.351073288,103.8708892,S'GOON STN EXIT F,None
339,1.334102294,103.7145983,PB PACKAGING SYSTEMS,None
340,1.431303625,103.7906228,OPP BLK 507,None
341,1.324201718,103.6647502,BEF TUAS FLYOVER,None
342,1.313855459,103.7020948,AFT TG KLING RD,None
343,1.435074018,103.7898787,BLK 515,None
344,1.347153007,103.7451774,BLK 185,None
345,1.33062337,103.929853,BLK 516,None
346,1.293925056,103.7668681,OPP VARSITY PK,None
347,1.349780719,103.7124029,OPP BLK 213,None
348,1.446008307,103.8253307,OPP CANBERRA DR,None
349,1.348003638,103.7009602,BLK 755,None
350,1.346147455,103.8465832,RAFFLES INSTN,None
351,1.344826172,103.708109,OPP RIVER VALLEY HIGH SCH,None
352,1.312529511,103.7528746,BLK T PANDAN LIGHT IND PK,None
353,1.327506979,103.8459543,Opp EASB,None
354,1.377132596,103.7554165,BLK 26,None
355,1.328014889,103.776736,OPP SIM HQ,None
356,1.347161427,103.8545829,ZION BIBLE PRESBY CH,None
357,1.326706411,103.7205133,CISCO RECALL,None
358,1.35957678,103.841697,BLK 260,None
359,1.345819264,103.8388021,OPP ST. THERESA'S HOME,None
360,1.336012814,103.9120629,BLK 151,None
361,1.37830137,103.8926943,BET BLKS 544/546,None
362,1.451547082,103.7889603,AFT VIEW RD,None
363,1.360767189,103.8286638,FLAME TREE PK,None
364,1.344235311,103.7200486,LAKESIDE STN,None
365,1.31382087,103.8766429,YI XIU FTY BLDG,None
366,1.296543577,103.7724571,CTRL LIB,None
367,1.318533013,103.6389069,AFT TUAS AVE 16,None
368,1.436717225,103.8336514,OPP DARUL MAKMUR MQUE,None
369,1.4448185,103.8163552,OPP SEMBAWANG SEC SCH,None
370,1.309567865,103.7812897,SP SMA,None
371,1.335115503,103.9502388,BLK 3014,None
372,1.353794259,103.8914457,OPP BLK 106,None
373,1.438881768,103.7769692,OPP BLK 137,None
374,1.427559546,103.8265556,OPP BLK 713,None
375,1.410560577,103.7796102,BEF MANDAI LAKE RD,None
376,1.397335799,103.7478259,OPP YEW TEE STN,None
377,1.378728402,103.7669669,OPP BLK 171,None
378,1.328742484,103.6372534,AFT PIONEER RD,None
379,1.357167651,103.8542878,BEF ANG MO KIO AVE 10,None
380,1.297717617,103.7857015,AYER RAJAH IND EST,None
381,1.365604522,103.6933289,OPP CIVIL DEFENCE ACAD,None
382,1.442356547,103.7900829,BLK 875,None
383,1.319937724,103.8697604,OPP BLK 66,None
384,1.34632614,103.7541804,OPP BLK 217,None
385,1.341602235,103.743616,BLK 241,None
386,1.35688571,103.9448018,BLK 401,None
387,1.392101934,103.8930848,BLK 323B,None
388,1.329148854,103.9635799,OPP GLOBAL LOGISTICS CTR,None
389,1.320765512,103.9180066,AFT PERPETUAL SUCCOUR CH,None
390,1.377074803,103.9456983,OPP BLK 500A,None
391,1.362416542,103.9021344,BEF DEFU AVE 2,None
392,1.299051368,103.7670453,OPP WEST BAY RESORT CONDO,None
393,1.364054232,103.8282435,FABER GDN,None
394,1.375819497,103.7692665,BET BLKS 139/140,None
395,1.338962349,103.9274145,WATERFRONT ISLE,None
396,1.363254414,103.9674644,BEF JLN MARIAM,None
397,1.436325682,103.7740623,BLK 146,None
398,1.345016748,103.7483617,BT BATOK SWIM CPLX,None
399,1.423606634,103.8302039,OPP KHATIB CAMP,None
400,1.320011678,103.6722788,ASIATIC AGRICULTURAL IND,None
401,1.351031507,103.8618502,NEW TECH PK,None
402,1.332731889,103.9012002,OPP EUNOS TECHNOLINK,None
403,1.313437836,103.72274,OPP JURONG ABATTOIR,None
404,1.32033013,103.7375824,BET BLKS 50/51,None
405,1.340789301,103.9365302,OPP BEDOK REFORM TRG CTR,None
406,1.310151073,103.6971019,AFT SHIPYARD RD,None
407,1.369972136,103.889473,BLK 834,None
408,1.326487139,103.8441693,AFT IRRAWADDY RD,None
409,1.313360332,103.6960141,Aft Jln Buroh,None
410,1.425060849,103.8455624,BLK 356,None
411,1.34646114,103.7546118,BLK 217,None
412,1.338000829,103.7032794,BLK 664C,None
413,1.309657021,103.8966644,DUNMAN VIEW,None
414,1.384238423,103.8444964,AMK POLICE DIV HQ,None
415,1.327077146,103.8703972,KOLAM AYER IND EST,None
416,1.337601069,103.8598849,OPP BLK 231,None
417,1.381354491,103.9981569,AFT CARGO BLDG D,None
418,1.350286459,103.7337917,AFT TRACK 18,None
419,1.342050871,103.7354109,OPP BLK 227,None
420,1.437603473,103.7923974,OPP BLK 896B,None
421,1.323802162,103.7725979,OPP BLK 116,None
422,1.402519672,103.9125991,OASIS STN / EXIT A,None
423,1.353109129,103.7304283,AFT TRACK 22,None
424,1.342647306,103.7038031,BLK 685B,None
425,1.332952979,103.8514363,CHUNG HWA FREE CLINIC,None
426,1.4189772,103.8409846,BLK 671 CP,None
427,1.342529445,103.7332134,OPP CHINESE GDN STN,None
428,1.330802199,103.8771818,OPP CENCON BLDG,None
429,1.397323664,103.9086534,MERDIAN STN EXIT B,None
430,1.353847497,103.9574971,NGEE ANN SEC SCH,None
431,1.32752638,103.7180821,BEF CHIA PING RD,None
432,1.364540689,103.7434179,OPP DUNEARN SEC SCH,None
433,1.355322336,103.9471216,BLK 237,None
434,1.338761781,103.7095665,BEF BOON LAY WAY,None
435,1.379823193,103.8881333,HOUGANG G. SHOP MALL,None
436,1.287059565,103.7850881,OPP SCI PK 2 / THE GALEN,None
437,1.433473922,103.796458,BLK 618,None
438,1.31529153,103.6599194,AFT GUL LANE,None
439,1.301759784,103.8960337,BEF TG KATONG RD,None
440,1.338775191,103.6381541,SUPER CONTINENTAL,None
441,1.455918195,103.7987206,NORTHTECH,None
442,1.278170905,103.7870209,PASIR VIEW PK,None
443,1.317190575,103.8075801,FARRER RD STN EXIT A,None
444,1.298215764,103.8555223,BUGIS CUBE,None
445,1.307517444,103.9176298,ST. PATRICK'S SCH,None
446,1.309757437,103.8672615,AFT PADANG JERINGAU,None
447,1.375122677,103.7401028,OPP BLK 489A,None
448,1.319836633,103.9444071,BLK 172,None
449,1.361790801,103.7436209,BT BATOK HME FOR THE AGED,None
450,1.375250238,103.7403674,BLK 489A,None
451,1.329985158,103.8603983,OPP BLK 195,None
452,1.299313513,103.8453726,DHOBY GHAUT STN,None
453,1.432304099,103.7722515,OPP BLK 402,None
454,1.350385129,103.7333448,OPP TRACK 18,None
455,1.372461325,103.8983271,BLK 355,None
456,1.457798456,103.8029412,OPP BRITISH AMERICAN TOBACCO,None
457,1.357217642,103.8288024,BEF WINDSOR PK RD,None
458,1.317292481,103.9159422,BEF FRANKEL DR,None
459,1.310700384,103.9186799,AFT DUNBAR WK,None
460,1.391403511,103.9817085,GOVT CHALETS,None
461,1.32016468,103.8618799,BOON KENG STN / BLK 102,None
462,1.320450027,103.8701577,BEF GEYLANG BAHRU STN,None
463,1.432079383,103.8420399,OPP BLK 314,None
464,1.411443558,103.8735653,OPP SELETAR CAMP,None
465,1.316615479,103.8903788,SIMS VILLE,None
466,1.375361162,103.9539426,DOWNTOWN EAST,None
467,1.403757983,103.8933391,BLK 227A,None
468,1.377447729,103.7508079,OPP BLK 113,None
469,1.371252244,103.8892903,BLK 512,None
470,1.282840186,103.7817889,OPP HAW PAR VILLA STN,None
471,1.307784505,103.6945127,PLANT ENGRG,None
472,1.314367758,103.6706849,AFT GUL AVE,None
473,1.317858454,103.735893,BEF PENJURU WK,None
474,1.307508464,103.7778926,AYER RAJAH TELECOMS,None
475,1.388159924,103.887548,OPP BLK 305 CP,None
476,1.345418458,103.7320002,BLK 347,None
477,1.41440551,103.8620971,YOUTH FLYING CLUB,None
478,1.296939921,103.8529766,BRAS BASAH CPLX,None
479,1.364949315,103.7441791,BLK 402,None
480,1.327666508,103.6939168,BEF FIRST LOK YANG RD,None
481,1.44614527,103.7772517,AFT RIVERSIDE RD,None
482,1.273126519,103.8489406,SHENTON WAY TER,None
483,1.310175965,103.7111709,JURONG ISLAND CHECKPT,None
484,1.312945197,103.9264179,CRESCENDO BLDG,None
485,1.436680989,103.764092,OPP GLOBALFOUNDRIES,None
486,1.302226659,103.8299791,AFT ORCHARD BLVD,None
487,1.419434812,103.8382597,OPP CHUNG CHENG HIGH SCH,None
488,1.31302343,103.7613648,BLK 506,None
489,1.343738281,103.8674302,OPP PUB RECREATION CLUB,None
490,1.336882965,103.8497555,JACKSON SQ,None
491,1.27553272,103.8410641,OPP MARITIME HSE,None
492,1.334535904,103.8536546,BLK 68,None
493,1.320233521,103.7370619,OPP BLK 51,None
494,1.420034874,103.8318347,BLK 794,None
495,1.418675087,103.8329964,OPP KHATIB STN EXIT D,None
496,1.290402786,103.827677,BLK 51 CP,None
497,1.417789191,103.8382901,BLK 858,None
498,1.379857773,103.6970707,HQ 5TH SIB CAMP I,None
499,1.316681881,103.9330426,OPP CASAFINA / TEMASEK JC,None
500,1.333841987,103.9293426,BLK 526,None
501,1.419717245,103.8317704,NAVAL BASE SEC SCH,None
502,1.334746043,103.6930654,AFT JURONG WEST ST 93,None
503,1.281050624,103.8446729,MAXWELL RD FC,None
504,1.389606602,103.9958436,OPP CHANGI BEACH CP 5,None
505,1.331417004,103.7199354,AFT FOURTH CHIN BEE RD,None
506,1.40208274,103.9127938,OASIS STN EXIT B / BLK 617D,None
507,1.289449035,103.8022404,AFT QUEENSTOWN NPC HQ,None
508,1.32175577,103.9136366,KEMBANGAN STN,None
509,1.359280198,103.9686158,BEF MARIAM WALK,None
510,1.402327624,103.8713974,BEF SELETAR CAMP G,None
511,1.345021018,103.9366914,TEMASEK POLY EAST G,None
512,1.298011602,103.8037314,AFT CH OF OUR SAVIOUR,None
513,1.288206529,103.8177506,BLK 73,None
514,1.311839261,103.7504631,PAN TECH IND CPLX,None
515,1.372598967,103.9508447,OPP PASIR RIS STN EXIT A,None
516,1.383103868,103.8825611,OPP BLK 991B,None
517,1.330295297,103.929606,BLK 414,None
518,1.309674311,103.8573291,BEF TAI HOE HOTEL,None
519,1.382141707,103.8794275,BUANGKOK SPORTS PK,None
520,1.368720222,103.6939188,BEF MUSLIM CEMY PATH 7,None
521,1.344956743,103.7086361,RIVER VALLEY HIGH SCH,None
522,1.33764961,103.7029297,Blk 662A,None
523,1.36577405,103.8434767,BLK 207,None
524,1.370395954,103.6880989,NIRVANA MEMORIAL GDN,None
525,1.273229467,103.8419349,OPP STH PT,None
526,1.446304981,103.8072393,SEAGATE,None
527,1.328149861,103.8539599,BLK 105,None
528,1.350290031,103.8712194,OPP S'GOON STN EXIT F,None
529,1.344180262,103.8394855,OPP BRADDELL VIEW,None
530,1.317396536,103.6588277,BEF TUAS AVE 5,None
531,1.391537392,103.8777537,FERNVALE STN / BLK 439A,None
532,1.316884748,103.9224791,OPP CHEVIOT HILL,None
533,1.343654202,103.847184,BLK 1004,None
534,1.312135718,103.8770895,OPP MOHD SALLEH MQUE,None
535,1.286063338,103.8024501,ALEXANDRA HOSP,None
536,1.31287458,103.8942632,CDAC BLDG,None
537,1.272740598,103.8413196,BEF CANTONMENT RD,None
538,1.346725961,103.9676783,OPP EDWARDS LIFESCIENCE,None
539,1.3909571,103.8388059,COUNTRYSIDE EST,None
540,1.289757669,103.8488327,OPP HIGH ST CTR,None
541,1.349385102,103.8539156,OPP KUO CHUAN PRESBY SCH,None
542,1.361287348,103.8646186,OPP CROWHURST DR,None
543,1.333618568,103.8984489,AFT REGENT MOTORS,None
544,1.338345147,103.6955358,OPP BLK 643,None
545,1.42003229,103.8245335,DIEPPE BARRACKS,None
546,1.383820445,103.8977783,RANGGUNG STN EXIT A,None
547,1.304217011,103.9076528,BET BLKS 72/74,None
548,1.329637249,103.8684906,18 WOODSVILLE,None
549,1.400140394,103.7497281,BLK 657,None
550,1.312719199,103.9071209,AFT LOR J TELOK KURAU,None
551,1.440609554,103.7279573,OPP NYEE PHOE GROUP,None
552,1.377209682,103.8601519,AFT CTE,None
553,1.323672922,103.6690181,SENG HENG ENGRG,None
554,1.403230671,103.9032193,AFT PUNGGOL CENTRAL,None
555,1.342597742,103.8799066,BARTLEY STN EXIT A,None
556,1.278016758,103.8482227,AFT CAPITAL TWR,None
557,1.306452205,103.7395088,CLP INTL,None
558,1.319319994,103.8493838,NATL SKIN CTR,None
559,1.38427491,103.8469082,OPP YIO CHU KANG STADIUM,None
560,1.282496902,103.8499523,PRUDENTIAL TWR,None
561,1.300923856,103.6573404,HQ 6 DIV,None
562,1.334805831,103.7224003,OPP BLK 117,None
563,1.438121919,103.825262,OPP JLN KEMUNING,None
564,1.279692082,103.842662,AFT KRETA AYER RD,None
565,1.384106267,103.846723,YIO CHU KANG STADIUM,None
566,1.284925713,103.8206282,OPP BLK 116,None
567,1.300905773,103.7968856,BLK 50,None
568,1.446523496,103.7975424,AFT W'LANDS MART,None
569,1.289933857,103.8564369,THE ESPLANADE,None
570,1.280303327,103.8238859,OPP CENDEX CTR,None
571,1.375219845,103.9012557,S'GOON SEC SCH,None
572,1.46098034,103.7647598,JB SENTRAL,None
573,1.399335565,103.9166372,KADALOOR STN EXIT B,None
574,1.370027714,103.8892773,BEF HOUGANG POLYCLINIC,None
575,1.345382929,103.8504882,GUANGYANG SEC SCH,None
576,1.301452581,103.7660919,OPP KENT RIDGE SEC SCH,None
577,1.367181238,103.9310421,OPP TAMPINES DORMITORY,None
578,1.358428411,103.8390983,BLK 7 IND EST,None
579,1.346020967,103.8989222,AIR FORCE MUSEUM,None
580,1.369982986,103.8534917,BLK 586,None
581,1.369611377,103.83983,ANG MO KIO PR SCH,None
582,1.372380005,103.6999717,TEEN CHALLENGE,None
583,1.297395087,103.8555981,BEF BEACH RD,None
584,1.38140725,103.9979062,BEF CARGO BLDG D,None
585,1.430243706,103.8455409,OPP BLK 367,None
586,1.373522201,103.9943934,SATS CARGO TER,None
587,1.317223825,103.7623456,OPP REGENT PK,None
588,1.31437053,103.7183285,AFT JURONG PORT RD,None
589,1.325018866,103.9523185,EXCELSIOR GDNS,None
590,1.324713699,103.6360548,BEF TUAS AVE 13,None
591,1.387800254,103.8462084,OPP SMRT BUSES AMK DEPOT,None
592,1.380474469,103.7483217,BLK 206,None
593,1.317818529,103.7640927,BLK 317,None
594,1.327204605,103.8879809,OPP BLK 66,None
595,1.319226401,103.9220465,BEF JLN KHAIRUDDIN,None
596,1.378850932,103.8294524,TEACHERS' HOUSING EST,None
597,1.31520793,103.9889282,TANAH MERAH FERRY TER,None
598,1.358306862,103.8512485,OPP BISHAN PK,None
599,1.33055837,103.9262318,BLK 546,None
600,1.334123977,103.7370375,OPP S'PORE SCIENCE CTR,None
601,1.327320911,103.6551377,TOYOCHEM INK,None
602,1.367629668,103.8928003,NAUNG RESIDENCE,None
603,1.328059764,103.8509955,OPP BLK 102,None
604,1.395476083,103.8974588,BLK 291A,None
605,1.344384925,103.7343866,OPP PARC OASIS,None
606,1.321807733,103.7417383,BLK 41,None
607,1.278538275,103.8301202,OPP BLK 140,None
608,1.302967985,103.9058483,PARKWAY PARADE,None
609,1.408470063,103.8987479,SUMANG STN EXIT B,None
610,1.320577892,103.6783187,BEF BENOI RD,None
611,1.370930849,103.8733479,BLK 516,None
612,1.335222578,103.858555,TOA PAYOH POLYCLINIC,None
613,1.385700783,103.8912102,AFT SENGKANG EAST AVE,None
614,1.375155168,103.8791022,HOUGANG 1,None
615,1.338328445,103.9249687,OPP BLK 716,None
616,1.408399725,103.898367,SUMANG STN EXIT A,None
617,1.359969735,103.9502822,BLK 430,None
618,1.389495865,103.8436446,OPP NCS HUB,None
619,1.299278917,103.8266488,CLIVEDEN AT GRANGE,None
620,1.415485966,103.8395169,OPP NAVAL BASE PR SCH,None
621,1.389924279,103.995206,CHANGI BEACH CP 4,None
622,1.432518126,103.7077123,AFT LIM CHU KANG LANE 4,None
623,1.283019435,103.787895,NATL LEADERSHIP INST,None
624,1.342442171,103.8694209,S'PORE POWER TRG INST,None
625,1.315565626,103.7198785,JURONG PORT WORKSHOPS,None
626,1.363687783,103.7649103,OPP GLENDALE PK CONDO,None
627,1.349728029,103.7413173,PRINCESS E PR SCH,None
628,1.458677962,103.8288145,AFT WELLINGTON RD,None
629,1.303475679,103.8586177,OPP STAMFORD PR SCH,None
630,1.33657772,103.9440205,AFT BEDOK IND PK E,None
631,1.411566731,103.7579825,BEF W'LANDS RD,None
632,1.405983727,103.7553557,SRI ARASAKESARI SIVAN TP,None
633,1.318993408,103.9234623,OPP OPERA EST PR SCH,None
634,1.291682026,103.8512157,ST ANDREW'S CATH,None
635,1.464602965,103.806033,BEF SENOKO CRES,None
636,1.378643142,103.7561421,BEF BLKS 13/14,None
637,1.342429713,103.7328115,CHINESE GDN STN,None
638,1.376750659,103.7408571,BLK 296A,None
639,1.385685286,103.8426224,OPP CASTLE GREEN,None
640,1.391568425,103.9843114,OPP CHANGI GOLF CLUB,None
641,1.346381618,103.9552641,BLK 130,None
642,1.330716893,103.8910322,OPP TRAFFIC POLICE,None
643,1.361864776,103.9644574,AFT JLN BATALONG,None
644,1.454863525,103.8010765,GIVAUDAN S'PORE,None
645,1.380019152,103.7639433,BT PANJANG PLAZA,None
646,1.433967391,103.7486526,BEF KRANJI CRES,None
647,1.315724054,103.7823997,OPP HENRY PK,None
648,1.330105965,103.6782654,OPP S'PORE DISCOVERY CTR,None
649,1.302564712,103.8323418,BEF ORCHARD STN EXIT B,None
650,1.315242724,103.719573,AFT JLN BUROH,None
651,1.274154099,103.8469069,OPP MAS BLDG,None
652,1.357350965,103.7615014,HILLVIEW HSE,None
653,1.361154544,103.8913256,AFT AN-NAEEM MQUE,None
654,1.391132493,103.9910607,CHANGI BEACH CP 2,None
655,1.353824569,103.8726909,BLK 261,None
656,1.334261256,103.6907624,JURONG CAMP,None
657,1.368859773,103.8656698,HEMSLEY AVE,None
658,1.459131177,103.8259276,OPP POLICE DRV CIRCUIT,None
659,1.351399701,103.756486,OPP BLK 242,None
660,1.334455383,103.645202,AFT TUAS AVE 7,None
661,1.343645126,103.8750791,OPP GAMBIR RIDGE,None
662,1.386943492,103.8961961,BLK 203,None
663,1.290779872,103.8609726,OPP THE RITZ-CARLTON,None
664,1.330066692,103.7209813,OPP BLK 161,None
665,1.454555506,103.7956837,AFT WOODLANDS IND PK E4,None
666,1.341570862,103.7590951,OPP PARKVIEW APTS,None
667,1.324673466,103.6906937,AFT THIRD LOK YANG RD,None
668,1.308832829,103.6966017,AFT JLN SAMULUN,None
669,1.340427823,103.7440327,BLK 288E,None
670,1.334697049,103.71945,OPP ASSYAKIRIN MQUE,None
671,1.459080205,103.8278136,OPP AUCKLAND RD WEST,None
672,1.341892955,103.9517643,BLK 254,None
673,1.452807104,103.8199118,BLK 508 CP,None
674,1.298902825,103.7867839,ONE-NORTH STN,None
675,1.340658483,103.9367379,BEDOK REFORM TRG CTR,None
676,1.389819334,103.8386329,COUNTRYSIDE GDN P/G,None
677,1.397027867,103.918123,BEF PUNGGOL CTRL,None
678,1.400867286,103.7541107,MULTISTATES TRADING,None
679,1.297105806,103.8905057,HAWAII TWR,None
680,1.373468162,103.8852312,BLK 681,None
681,1.351067674,103.9315368,BLK 880,None
682,1.303701235,103.6862668,AFT JURONG MARINE BASE,None
683,1.352732727,103.8405088,MARYMOUNT VIEW,None
684,1.330137166,103.9344348,BLK 403,None
685,1.397400926,103.7475618,YEW TEE STN,None
686,1.372243177,103.7031906,AFT JLN BERSERI,None
687,1.350748133,103.6785826,CP 7,None
688,1.418860174,103.8245867,OPP DIEPPE BARRACKS,None
689,1.370770095,103.7627049,BLK 319,None
690,1.290926838,103.8203765,DELTA SPORTS HALL,None
691,1.377276637,103.7673238,AFT PETIR STN,None
692,1.317892235,103.6892284,MAPLETREE LOGISTICS HUB,None
693,1.338517713,103.6957762,BLK 643,None
694,1.290568581,103.7734713,OPP HENG MUI KENG TERR,None
695,1.319392329,103.9017367,EUNOS INT,None
696,1.320812295,103.812466,OPP LUTHERAN TWRS,None
697,1.449170283,103.8270246,OPP BLK 590C,None
698,1.333790294,103.83799,SLF CPLX,None
699,1.271467133,103.8064249,OPP YEO'S BLDG,None
700,1.445852822,103.7997264,BLK 786A CP,None
701,1.314019206,103.9316281,OPP SIGLAP STH CC,None
702,1.343480504,103.7543836,BLK 291E,None
703,1.319526186,103.6831846,S'PORE TPT PTE LTD,None
704,1.315223389,103.7690808,BLK 334,None
705,1.33736695,103.9220355,BLK 745,None
706,1.434299267,103.8395196,BLK 257,None
707,1.34517374,103.706208,BLK 680C,None
708,1.349165923,103.7038311,OPP BLK 271 CP,None
709,1.378425616,103.9360942,BLK 740,None
710,1.324493068,103.6425701,OPP HEMPEL,None
711,1.342329451,103.9534582,SIMEI STN,None
712,1.353429586,103.742737,BLK 451A,None
713,1.313949048,103.7080922,AFT JURONG PIER RD,None
714,1.31999286,103.7621703,NAN HUA PR SCH,None
715,1.359284053,103.751483,OPP BT GOMBAK STN,None
716,1.376055594,103.7692901,BLK 127,None
717,1.359935619,103.6937833,AFT NANYANG AVE,None
718,1.329844053,103.8145733,OPP THE JAPANESE ASSN,None
719,1.313595301,103.7349438,BEF PENJURU CL,None
720,1.330921081,103.8500612,TOA PAYOH SWIM CPLX,None
721,1.291264534,103.7711498,OPP PASIR PANJANG PO,None
722,1.327651317,103.7025685,AFT NEYTHAL RD,None
723,1.318639641,103.7099923,OPP JLN PESAWAT,None
724,1.357376232,103.752893,OPP BT GOMBAK STADIUM,None
725,1.309585387,103.9294782,LAGUNA PK,None
726,1.356149105,103.9598263,EDEN CONDO,None
727,1.294733417,103.7954818,BEF ALL SAINTS CHAPEL,None
728,1.386565604,103.8947057,BLK 203B,None
729,1.404933121,103.909281,DAMAI STN EXIT A,None
730,1.33340806,103.8784086,OPP BLK 4,None
731,1.356548461,103.7500063,BLK 531,None
732,1.337821668,103.8385483,AFT CALDECOTT STN,None
733,1.356620834,103.7496504,OPP BLK 532,None
734,1.443924563,103.8062741,WOODSVALE CONDO,None
735,1.293202497,103.849725,ARMENIAN CH,None
736,1.354377763,103.7518581,BLK 514,None
737,1.345267691,103.714822,BLK 206,None
738,1.425637447,103.8349665,BLK 763,None
739,1.359061403,103.7516773,BT GOMBAK STN,None
740,1.361304955,103.9906394,CHANGI AIRPORT PTB1,None
741,1.362433921,103.751548,OPP BLK 347,None
742,1.436853046,103.7645675,GLOBALFOUNDRIES,None
743,1.331561393,103.9473128,OPP BEDOK MKT PL,None
744,1.337704697,103.7210604,OPP BLK 364,None
745,1.362579388,103.7513591,BLK 347,None
746,1.320325959,103.747168,OPP AYER RAJAH CC,None
747,1.387811581,103.9855377,AFT CHANGI GOLF COURSE,None
748,1.351384117,103.8359494,THOMSON CC,None
749,1.324031488,103.744241,BEF JURONG TOWN HALL RD,None
750,1.371223936,103.885176,BLK 679,None
751,1.35223348,103.8371638,SHUNFU MART,None
752,1.362687094,103.9737356,OPP CHANGI CHAPEL MUSEUM,None
753,1.338053048,103.8438445,BLK 128,None
754,1.423397327,103.8387579,OPP KHOO TECK PUAT HOSP,None
755,1.384059782,103.8444252,OPP AMK POLICE DIV HQ,None
756,1.374132466,103.7169772,KEAT HONG CAMP,None
757,1.388308191,103.7713749,BLK 485,None
758,1.37168297,103.8567313,BLK 555,None
759,1.351652912,103.837962,BLK 314,None
760,1.30221629,103.6297465,AFT TUAS STH AVE 6,None
761,1.315944858,103.8518285,KENTISH GREEN,None
762,1.376904845,103.7401542,OPP BLK 296A,None
763,1.335546272,103.8466036,BLK 84B,None
764,1.364352324,103.8967642,OPP BLK 316,None
765,1.405349439,103.9018356,PUNGGOL STN / WATERWAY PT,None
766,1.305345523,103.7947467,OPP BLK 7B,None
767,1.349175794,103.7256637,BLK 491,None
768,1.312885096,103.9338393,EASTERN LAGOON II,None
769,1.329411807,103.6435076,NISSIN TPT,None
770,1.358995872,103.8876598,BET BLKS 210/211,None
771,1.305349392,103.6923668,KEPPEL OFFSHORE & MARINE,None
772,1.322297705,103.8767271,AFT KALLANG WAY 2,None
773,1.311865861,103.7873436,BLK 3,None
774,1.331663726,103.6892548,BEF KIAN TECK RD,None
775,1.337281782,103.7047568,BLK 662D,None
776,1.361091017,103.8510968,OPP BLK 333,None
777,1.3568806,103.9478455,BLK 423,None
778,1.332963266,103.947264,BEF JLN PARI BURONG,None
779,1.334944362,103.8538758,BLK 34,None
780,1.389465805,103.9052638,BLK 142A,None
781,1.342110534,103.6375074,TUAS LK STN,None
782,1.375740497,103.864663,SING IND CPLX,None
783,1.3170386,103.8991248,BLK 3A,None
784,1.437928772,103.8256213,AFT JLN KEMUNING,None
785,1.441020215,103.7724437,MARSILING CC,None
786,1.378370121,103.9415229,ELIAS MALL,None
787,1.324996117,103.6669887,OPP ESAB,None
788,1.381530934,103.8971986,OPP THE RIVERVALE,None
789,1.355858454,103.7214158,BEF HONG KAH CIRCLE,None
790,1.360333023,103.7642661,Hillington Green Condo,None
791,1.374761924,103.8952056,BLK 412,None
792,1.281611803,103.8530899,THE SAIL,None
793,1.306827392,103.9063938,THE HOLY FAMILY CH,None
794,1.328620881,103.7768403,SIM HQ,None
795,1.310064844,103.6974629,BEF SHIPYARD RD,None
796,1.279395995,103.8527012,DOWNTOWN STN,None
797,1.421726871,103.7556691,OPP KRANJI WAR MEMORIAL,None
798,1.376064923,103.8768474,OPP BLK 953,None
799,1.415324636,103.8233804,AFT SEMBAWANG AIR BASE,None
800,1.368750531,103.8471236,BLK 322,None
801,1.307937805,103.6497882,AFT OCEAN TANKER,None
802,1.387060105,103.8729208,SELETAR HILLS EST,None
803,1.374440249,103.8834783,BLK 665,None
804,1.349563644,103.9493596,OPP THE HOLY TRINITY CH,None
805,1.321039092,103.8915365,CISCO CTR,None
806,1.340290222,103.8224844,BEF WALLACE WAY,None
807,1.332158773,103.9653013,DBS ASIA HUB,None
808,1.351733385,103.8786425,Blk 161,None
809,1.319201625,103.7427794,BLK 35,None
810,1.321927518,103.9546323,COUNTRY PK,None
811,1.309139508,103.7919272,BUONA VISTA TER,None
812,1.390512829,103.9032161,BLK 128,None
813,1.397072644,103.8730741,JLN KAYU SHOPHSE,None
814,1.428294005,103.8306096,JIEMIN PR SCH,None
815,1.368979083,103.9604782,BLK 216,None
816,1.363322112,103.9703947,BEF TOH CL,None
817,1.353355274,103.851194,BISHAN STADIUM,None
818,1.390947067,103.897783,BLK 240,None
819,1.304226461,103.7879268,AFT ANGLO-CHINESE JC,None
820,1.384069087,103.8996569,OPP BLK 110,None
821,1.353058069,103.7009104,WESTWOOD SEC SCH,None
822,1.432411535,103.7775962,BLK 173,None
823,1.314370385,103.9350473,EVERGREEN GDN,None
824,1.275267811,103.815111,BEF TELOK BLANGAH HTS,None
825,1.294752287,103.7873995,BLK 55,None
826,1.309903369,103.8799995,AFT CHEN LI PRESBY CH,None
827,1.322678737,103.8262776,AFT TANGLIN CC,None
828,1.32256576,103.8701745,BLK 68,None
829,1.310799958,103.9025486,AFT KOON SENG RD,None
830,1.269932927,103.8131899,BEF CHR COMMUNITY CHAPEL,None
831,1.370219748,103.8953793,THE MIDTOWN,None
832,1.29061061,103.8287544,BLK 79,None
833,1.347901172,103.6804293,LEE WEE NAM LIB,None
834,1.314265348,103.7047227,CEVA LOGISTICS,None
835,1.314903307,103.8810491,BEF LOR 23 GEYLANG,None
836,1.30271909,103.6556885,OPP KEPPEL SHIPYARD,None
837,1.286598119,103.8116275,OPP BLK 44,None
838,1.387499629,103.9856586,CHANGI GOLF COURSE,None
839,1.402196421,103.8139768,OPP MENG SUAN RD,None
840,1.342921313,103.6940994,BLK 834,None
841,1.356127305,103.6915491,BEF LOR DANAU,None
842,1.294086132,103.8141551,QUEENSTOWN SEC SCH,None
843,1.375819564,103.8531518,BLK 538,None
844,1.322029447,103.7071463,OPP JURONG BIRD PK,None
845,1.439230967,103.7931466,BLK 853,None
846,1.305117498,103.7699433,AFT NUS HIGH SCH,None
847,1.351455995,103.7040332,BLK 273B,None
848,1.33557295,103.6415152,S'PORE EPSON IND,None
849,1.307490754,103.7821088,S'PORE POLY,None
850,1.387202014,103.9042071,NTH SPRING PRI SCH,None
851,1.314743581,103.8908784,OPP LOR 39 GEYLANG,None
852,1.285704945,103.853368,FULLERTON SQ,None
853,1.340562168,103.822361,AFT WALLACE WAY,None
854,1.311341553,103.924836,BEF SEKOLAH INDONESIA,None
855,1.339192857,103.8465442,BLK 121,None
856,1.396732277,103.8757281,THANGGAM STN,None
857,1.341330952,103.7546254,OPP SBST BT BATOK DEPOT,None
858,1.324290396,103.9301337,BEDOK STN EXIT B,None
859,1.337144937,103.7671515,AFT ENG KONG PL,None
860,1.319620876,103.9358164,TEMASEK JC,None
861,1.355864004,103.8719929,OPP BLK 257,None
862,1.375668528,103.958066,OPP BLK 479,None
863,1.376359531,103.7710353,OPP PENDING STN,None
864,1.414018833,103.8730341,SELETAR AIRPOT,None
865,1.433554182,103.7879865,BEF W'LANDS STN EXIT 7,None
866,1.402418308,103.814441,AFT MENG SUAN RD,None
867,1.289670051,103.8337176,HOLIDAY INN ATRIUM,None
868,1.328105449,103.9197339,BLK 53,None
869,1.328540932,103.9225627,BLK 51,None
870,1.346884201,103.9843532,AFT CHANGI AIRPORT PTB2,None
871,1.36283576,103.8370022,BEF BRIGHT HILL TP,None
872,1.328129607,103.7670656,LP 36,None
873,1.361664926,103.8509158,BLK 331,None
874,1.288723774,103.8373142,HOTEL MIRAMAR,None
875,1.344229591,103.6406358,BEF TUAS WEST DR,None
876,1.369235064,103.8589381,BLK 564,None
877,1.38905255,103.9784408,BEF CRANWELL RD,None
878,1.338913581,103.9822492,CHANGI AIRPORT PTB4,None
879,1.297555735,103.8673209,OPP COSTA RHU CONDO,None
880,1.334075589,103.8512739,OPP BLK 73,None
881,1.333023764,103.7113745,AFT CHIN BEE RD,None
882,1.336864973,103.7177624,OPP TAMAN JURONG GREENS,None
883,1.301689523,103.7528381,FRANKLIN OFFSHORE,None
884,1.378148686,103.9035247,BLK 477A,None
885,1.327532546,103.8373146,BEF THOMSON FLYOVER,None
886,1.336065049,103.7103832,OPP SIME DARBY,None
887,1.333018223,103.710974,BEF CHIN BEE RD,None
888,1.306943883,103.8193274,S'PORE BOTANIC GDNS,None
889,1.286759777,103.8457825,HONG LIM PK,None
890,1.296208064,103.7668831,WASEDA S SNR HIGH SCH,None
891,1.362226533,103.7659506,GLENDALE PK CONDO,None
892,1.312505206,103.9249941,OPP SPRINGVALE,None
893,1.308775143,103.9108859,CALTEX STN,None
894,1.334880101,103.7195392,ASSYAKIRIN MQUE,None
895,1.389064312,103.8971005,BLK 223D,None
896,1.378859493,103.8399879,BLK 641,None
897,1.308540805,103.9106902,OPP CALTEX STN,None
898,1.349339898,103.8660974,GOLDEN HITS,None
899,1.288652451,103.8054962,ANCHORPOINT,None
900,1.432247276,103.840172,BLK 309,None
901,1.429075305,103.7728455,BLK 409,None
902,1.281149194,103.7845973,HORIZON RESIDENCES,None
903,1.419723183,103.8343098,BLK 790,None
904,1.286191641,103.8067993,OPP BLK 2,None
905,1.358584168,103.9472079,BLK 417,None
906,1.300917052,103.8607033,OPP PLAZA PARKROYAL,None
907,1.382784916,103.9361335,BLK 717,None
908,1.312791337,103.8598695,HOA NAM BLDG,None
909,1.320490298,103.7635132,BLK 201,None
910,1.319252531,103.7420933,OPP BLKS 34/35,None
911,1.399846533,103.9163295,KADALOOR STN EXIT A,None
912,1.318079819,103.9447612,OPP BLK 156,None
913,1.36477791,103.9676588,BEF OLD TAMPINES RD,None
914,1.459969829,103.8151473,BEF HEAVY VEH PK,None
915,1.389634672,103.8408948,BEF YIO CHU KANG RD,None
916,1.389382651,103.904966,BLK 137,None
917,1.280344686,103.8550609,MARINA BAY FINANCIAL CTR,None
918,1.329425353,103.9246,BLK 547,None
919,1.297580295,103.8929594,THE SOVEREIGN,None
920,1.303351723,103.8610616,OPP TEXTILE CTR,None
921,1.394198999,103.8342804,LENTOR FLYOVER,None
922,1.391336012,103.8702472,BEF JLN KAYU,None
923,1.309782335,103.9159409,CHRIST METH CH,None
924,1.305595958,103.8019233,OPP BLK 95,None
925,1.297522285,103.8886991,THE SEAFRONT,None
926,1.316968612,103.8415982,HOTEL ROYAL,None
927,1.352023968,103.8858566,OPP PAYA LEBAR GIRLS' SCH,None
928,1.338059233,103.9339085,THE CLEARWATER CONDO,None
929,1.302088929,103.7983456,C'WEALTH STN EXIT A / D,None
930,1.351700375,103.7083057,OPP CORPORATION PR SCH,None
931,1.373143166,103.9743133,AFT LOYANG WAY,None
932,1.416879965,103.8332969,Opp Khatib Stn,None
933,1.303847276,103.8268461,BEF TOMLINSON RD,None
934,1.274292233,103.8094099,BLK 67,None
935,1.337173433,103.8374372,AFT TOA PAYOH RISE,None
936,1.380248495,103.9733926,PRATT & WHITNEY CANADA,None
937,1.370944975,103.8920491,HOUGANG CTRL INT,None
938,1.296983521,103.8565062,OPP SHAW TWRS,None
939,1.330075447,103.795119,SIXTH AVE VILLE,None
940,1.347492454,103.7010333,OPP BLK 755,None
941,1.351539926,103.7589761,BLK 258,None
942,1.450105342,103.8181511,BLK 354,None
943,1.395246922,103.8973601,OPP BLK 291A,None
944,1.387389297,103.8730734,OPP SELETAR HILL EST,None
945,1.425149629,103.8281739,OPP BLK 722,None
946,1.309021243,103.7658909,AFT CLEMENTI SWIM CPLX,None
947,1.309856065,103.9294415,OPP VICTORIA SCH,None
948,1.404584739,103.9093041,DAMAI STN EXIT B,None
949,1.281410772,103.8034704,THE INTERLACE,None
950,1.319041223,103.9243046,OPERA EST PR SCH,None
951,1.37809142,103.738481,SUNSHINE PL,None
952,1.3010976,103.8019182,QUEENSWAY SEC SCH,None
953,1.352908467,103.8517568,OPP BISHAN STADIUM,None
954,1.335819965,103.7388543,SEVENTH-DAY ADVENT CH,None
955,1.294178435,103.7698458,KENT RIDGE TER,None
956,1.337020559,103.8522101,BLK 59,None
957,1.286809755,103.8220857,BEF TIONG BAHRU RD,None
958,1.335544938,103.6418016,OPP S'PORE EPSON IND,None
959,1.325700405,103.8418426,THOMSON MED CTR,None
960,1.350674312,103.7236225,BLK 463,None
961,1.298396163,103.8954371,PEACH GDN,None
962,1.307770486,103.9312552,CABLE SKI PK,None
963,1.378481905,103.8706764,AFT SEAGATE,None
964,1.291529972,103.8145068,SIS BLDG,None
965,1.331851401,103.8943418,HDB CP,None
966,1.308954137,103.7604232,BLK 513,None
967,1.336170723,103.8778177,AFT JOO SENG RD,None
968,1.275698998,103.8149732,AFT TELOK BLANGAH HTS,None
969,1.341919951,103.8709814,AFT BARTLEY RD,None
970,1.353706619,103.9611567,BLK 333,None
971,1.321282466,103.9278382,PANASONIC,None
972,1.426592598,103.8464153,EVANGEL FAMILY CH,None
973,1.352219823,103.9594938,BLK 324,None
974,1.329424785,103.9491348,BEF JLN CHEMPAKA KUNING,None
975,1.354016619,103.7291703,OPP JURONG LODGE 1B,None
976,1.337052615,103.9038426,THE LEO,None
977,1.3476807,103.8899518,OPP S'PORE GIRLS' HOME,None
978,1.321243745,103.7434027,TEBAN GDN PO,None
979,1.319453674,103.8901061,BLK 1015,None
980,1.336707808,103.9040124,EMPIRE TECHNOCENTRE,None
981,1.348354561,103.7116871,BOON LAY CC,None
982,1.422976542,103.8328261,BLK 773,None
983,1.427595359,103.773175,BLK 413,None
984,1.373286566,103.863087,OPP BLK 5043,None
985,1.317227487,103.7682207,BLK 335,None
986,1.282959451,103.7878032,OPP NATL LEADERSHIP INST,None
987,1.294190799,103.8308105,OPP GREAT WORLD CITY,None
988,1.372063876,103.8548213,OPP BLK 527,None
989,1.322234625,103.8257126,RAFFLES TOWN CLUB,None
990,1.425126195,103.7569452,BEF W'LANDS RD,None
991,1.314983664,103.7510809,S'PORE FOOD IND,None
992,1.380097366,103.942796,BEF PASIR RIS DR 3,None
993,1.378176673,103.7550853,BLK 25,None
994,1.4293481,103.8351668,YISHUN STN,None
995,1.377613614,103.6963222,OPP CHINESE CEMY PATH 11,None
996,1.410744752,103.8223139,OPP NEE SOON HQ 22 SIB,None
997,1.335626843,103.8981956,COMFORT DRIVING CTR,None
998,1.356893321,103.6938842,BEF JLN BAHAR,None
999,1.295530654,103.8595184,SUNTEC TWR THREE,None
1000,1.346726386,103.9714067,SATS MAINTENANCE CTR 2,None
1001,1.438988312,103.8349704,OPP YISHUN IND PK A,None
1002,1.303359774,103.8595882,BEF SULTAN MQUE,None
1003,1.329500479,103.9513876,BEF BEDOK RD,None
1004,1.320509767,103.7764466,AFT PANDAN VALLEY,None
1005,1.315328397,103.9429277,CALVARY ABLY OF GOD CH,None
1006,1.326661482,103.8074509,OPP TAN KAH KEE STN,None
1007,1.379004032,103.9427578,OPP PASIR RIS ELIAS CC,None
1008,1.383832344,103.8807215,OPP BLK 998B,None
1009,1.318591286,103.8572624,BLK 122,None
1010,1.295570479,103.8132275,OPP QUEENSTOWN SEC SCH,None
1011,1.316967831,103.8260633,BEF MET YMCA,None
1012,1.29244567,103.841097,AFT UNITY ST,None
1013,1.329245138,103.7028799,BEF FAN YOONG RD,None
1014,1.32543679,103.657128,BECTON DICKINSON MED,None
1015,1.373954032,103.6939779,OPP CCK CEMY OFFICE,None
1016,1.374096932,103.6934396,CCK CEMY OFFICE,None
1017,1.367189748,103.9633133,OPP BLK 204,None
1018,1.357537621,103.8850252,KOVAN SPORTS CTR,None
1019,1.270506146,103.8298291,OPP TG PAGAR DP BLK F5,None
1020,1.435346761,103.7816102,BLK 101,None
1021,1.294994095,103.8320605,THE TRILLIUM,None
1022,1.294180971,103.8502357,STAMFORD CT,None
1023,1.333373454,103.7898903,THE TESSARINA,None
1024,1.445311581,103.7753599,SI LING SEC SCH,None
1025,1.315162568,103.7693613,BLK355,None
1026,1.306631192,103.8137727,BEF TYERSALL AVE,None
1027,1.389440918,103.9786678,AFT CRANWELL RD,None
1028,1.295737257,103.6328997,BEF TUAS STH AVE 7,None
1029,1.310856967,103.7636172,CLEMENTI STADIUM,None
1030,1.350978812,103.929497,OPP SPRINGFIELD SEC SCH,None
1031,1.330015248,103.9273783,BLK 521,None
1032,1.351575869,103.9285195,BLK 879B,None
1033,1.346307924,103.7038735,BLK 676B,None
1034,1.380900022,103.7497352,OPP BLK 203,None
1035,1.318594432,103.9144384,BEF FRANKEL TERR,None
1036,1.43863487,103.8403918,OPP CHONGFU PR SCH,None
1037,1.29633854,103.7834089,NUH,None
1038,1.290828844,103.8113075,PORSCHE CTR S'PORE,None
1039,1.296813941,103.783201,OPP NUH,None
1040,1.281562228,103.8387713,OUTRAM PK STN,None
1041,1.380888913,103.738491,BLK 442,None
1042,1.288940612,103.815053,BLK 63B,None
1043,1.287160078,103.8140387,ENABLING VILLAGE,None
1044,1.354551534,103.9314359,OPP BLK 871A,None
1045,1.289308805,103.8139363,BLK 54,None
1046,1.45276661,103.8163961,BLK 478,None
1047,1.373983669,103.7522529,OPP BT BATOK FIRE STN,None
1048,1.364346654,103.9654343,OPP BLK 275,None
1049,1.317697208,103.7631087,CLEMENTI INT,None
1050,1.276246542,103.8230355,ST. THERESA'S CONVENT,None
1051,1.287636203,103.8172529,OPP BLK 71,None
1052,1.372542424,103.7021288,OPP TEEN CHALLENGE,None
1053,1.287542432,103.8162674,BLK 72,None
1054,1.426369294,103.8426183,OPP HUAMIN PR SCH,None
1055,1.33243443,103.7455221,OPP NG TENG FONG GEN HOSP,None
1056,1.327687677,103.8809962,AFT JLN ANGGEREK,None
1057,1.307703938,103.6846974,OPP SML SHIPYARD LTD,None
1058,1.367836659,103.775319,BEF CHESTNUT AVE,None
1059,1.38158276,103.8975021,THE RIVERVALE,None
1060,1.381881591,103.744924,BLK 223,None
1061,1.28048176,103.8263167,BLK 111,None
1062,1.452603098,103.7917279,OPP W'LANDS AUTO HUB,None
1063,1.39140736,103.8387533,OPP COUNTRYSIDE EST,None
1064,1.287199723,103.8482905,BOAT QUAY,None
1065,1.309113535,103.7715492,AFT CLEMENTI AVE 1,None
1066,1.460811816,103.8058941,OPP SUMITOMO BAKELITE S'PORE,None
1067,1.363338796,103.8278293,OPP FABER GDN,None
1068,1.373103669,103.7129834,OPP TENGAH AIR BASE,None
1069,1.350820364,103.7180354,BLK 454,None
1070,1.379400609,103.8863747,BLK 579,None
1071,1.297316901,103.8490899,SMU,None
1072,1.325113536,103.7658305,HSE NO 90,None
1073,1.315623204,103.9059075,AFT LOR G TELOK KURAU,None
1074,1.345166251,103.8708199,AFT SOMMERVILLE RD,None
1075,1.320140009,103.8260341,STEVENS STN,None
1076,1.350575987,103.8988635,ST AERO,None
1077,1.308581323,103.8025385,VIZ HOLLAND,None
1078,1.322658266,103.8203007,AFT KHEAM HOCK RD,None
1079,1.31099847,103.8358775,OPP ENV BLDG,None
1080,1.267166437,103.8191148,HARBOURFRONT INT,None
1081,1.341708022,103.8360658,OPP MACRITCHIE RESVR,None
1082,1.353982441,103.7600924,OPP THE PETALS CONDO,None
1083,1.321114274,103.9052884,OPP EUNOS STN,None
1084,1.308829283,103.6969169,BEF JLN SAMULUN,None
1085,1.443903867,103.7992708,BLK 726,None
1086,1.351350567,103.9336484,BLK 882A,None
1087,1.271825623,103.8271832,OPP KEPPEL DP BLK 519,None
1088,1.308109714,103.765838,CLEMENTI FLYOVER,None
1089,1.346422121,103.7130113,BOON LAY SHOP CTR,None
1090,1.425078225,103.825517,OPP KHATIB CAMP,None
1091,1.314221518,103.8921769,OPP GRANDLINK SQ,None
1092,1.426110898,103.7053838,AFT LIM CHU KANG LANE 3,None
1093,1.31658553,103.8363681,CHANCERY CT,None
1094,1.391292307,103.8562491,AFT SUNRISE GDNS,None
1095,1.303683868,103.9195556,OPP VICTORIA JC,None
1096,1.347268824,103.8599601,AFT BRADDELL RD,None
1097,1.308335847,103.8094634,AFT PEIRCE RD,None
1098,1.358460392,103.9341396,BLK 734,None
1099,1.43666574,103.7468738,DAIYA ENGRG,None
1100,1.287776288,103.8433408,CTRL SQ,None
1101,1.326821017,103.8695421,MOM SVCS CTR,None
1102,1.349682192,103.7086878,ST JOSEPH'S HOME,None
1103,1.391118984,103.886316,ANCHOR GREEN PR SCH,None
1104,1.332986825,103.865305,BET BLKS 138/144,None
1105,1.431396009,103.84571,OPP BLK 333C,None
1106,1.312707955,103.8941055,AFT QUEEN OF PEACE CH,None
1107,1.366755225,103.961158,BLK 210,None
1108,1.42000056,103.7507563,SIM HUP CO,None
1109,1.294704337,103.8057007,QUEENSTOWN STN EXIT A / D,None
1110,1.351376224,103.7378556,DULWICH COLL/ BLK 445,None
1111,1.359325806,103.9309705,BEF TAMPINES AVE 5,None
1112,1.341925727,103.7442019,BLK 266,None
1113,1.359285991,103.8552639,OPP TOWNSVILLE PRI SCH,None
1114,1.318251276,103.6886031,TRU-MARINE,None
1115,1.428789577,103.8401955,OPP BLK 322,None
1116,1.350468205,103.8498057,BISHAN INT,None
1117,1.368132057,103.8844391,OPP BLK 615,None
1118,1.300535663,103.7701544,NUS FAC OF ENGRG,None
1119,1.3363443,103.8370169,AFT ANDREW RD,None
1120,1.280927452,103.8020226,AFT HORTPARK,None
1121,1.294083301,103.8423417,OPP MOHD SULTAN RD,None
1122,1.313161972,103.900874,BEF JOO CHIAT PL,None
1123,1.457653795,103.802206,BEF BRITISH AMERICAN TOBACCO,None
1124,1.296944136,103.8568286,SHAW TWRS,None
1125,1.286615095,103.8032847,OPP QUEENSWAY SHOP CTR,None
1126,1.349307559,103.8658756,OPP GOLDEN HTS,None
1127,1.416299444,103.9096382,AFT TRACK 22,None
1128,1.328330469,103.8854735,BLK 77,None
1129,1.296940836,103.6296969,BEF TUAS STH AVE 5,None
1130,1.344093201,103.8635043,AFT LYNWOOD GR,None
1131,1.285933762,103.826541,OPP TIONG BAHRU STN,None
1132,1.362967646,103.6930004,OPP JLN BAHAR POWER STN,None
1133,1.440965755,103.7954495,BLK 864,None
1134,1.372020824,103.970194,KRISLITE BLDG,None
1135,1.33599687,103.8651675,BLK 121,None
1136,1.363212598,103.9067044,BEF KPE,None
1137,1.317361722,103.9162888,AFT FRANKEL DR,None
1138,1.333753852,103.6436867,KEE WEE HUP KEE,None
1139,1.295841723,103.8593638,SUNTEC TWR TWO,None
1140,1.364165494,103.8920961,BLK 21,None
1141,1.338346989,103.9339318,OPP THE CLEARWATER CONDO,None
1142,1.287178402,103.8225499,AFT TIONG BAHRU RD,None
1143,1.342252096,103.9558523,BET BLKS 227/228,None
1144,1.354597922,103.8470598,BLK 202,None
1145,1.390487298,103.8857305,BLK 309D,None
1146,1.317291653,103.9221755,BEF SIGLAP DR,None
1147,1.316407385,103.892176,PAYA LEBAR STN EXIT D,None
1148,1.281741317,103.8095401,AFT HEWLETT PACKARD,None
1149,1.334123169,103.8570383,BLK 25,None
1150,1.443981115,103.8225487,Opp Blk 303,None
1151,1.307873748,103.8330181,THONG TECK BLDG,None
1152,1.293560265,103.8159472,CRESCENT GIRLS' SCH,None
1153,1.391039027,103.9798037,BEF TURNHOUSE RD,None
1154,1.380556927,103.9407036,OPP BLK 626,None
1155,1.390630644,103.8974282,OPP BLK 241,None
1156,1.2892036,103.812846,OPP BLK 53,None
1157,1.388556723,103.8458865,SMRT BUSES AMK DEPOT,None
1158,1.268391007,103.8256671,OPP MT FABER LODGE,None
1159,1.385041218,103.7424405,BET BLKS 306/307,None
1160,1.373114875,103.9637178,PASIR RIS PR SCH,None
1161,1.277910579,103.8435376,AFT CRAIG RD,None
1162,1.364627515,103.9676254,BEF LOYANG AVE,None
1163,1.377037831,103.8669761,BEF ANG MO KIO IND PK 2A,None
1164,1.337800406,103.946937,SBST BEDOK NTH DEPOT,None
1165,1.274817964,103.8431948,THE AMARA,None
1166,1.35931179,103.8302885,BLK 454,None
1167,1.338320507,103.7411409,BLK 209,None
1168,1.318207584,103.7661532,BLK 376,None
1169,1.398800287,103.6999918,AFT LP 96,None
1170,1.367445841,103.8322613,BEF ANG MO KIO AVE 2,None
1171,1.319560617,103.6662279,AFT GUL ST 3,None
1172,1.319780473,103.8902099,OPP BLK 1015,None
1173,1.32679412,103.7756421,MAJU CAMP,None
1174,1.288509642,103.8209091,BEF AR-RABITAH MQUE,None
1175,1.379968465,103.9758932,COMPOSITE TECH,None
1176,1.342536138,103.7055464,BLK 691A CP,None
1177,1.315171092,103.8932451,CITY PLAZA,None
1178,1.3069658,103.8284801,DELFI ORCHARD,None
1179,1.326707386,103.6840239,OPP VARCO,None
1180,1.288737324,103.8192798,DELTA SWIM CPLX,None
1181,1.29686541,103.8078195,QUEENSTOWN PR SCH,None
1182,1.314745348,103.7900245,AFT EAST SUSSEX LANE,None
1183,1.350329432,103.9677373,BEF VICOM,None
1184,1.351487701,103.8631836,OPP LOR CHUAN STN EXIT B,None
1185,1.33925121,103.7220871,BLK 354,None
1186,1.410591935,103.7524469,KIM HOCK CORP PTE LTD,None
1187,1.413364184,103.7517698,WHYE WAH DEVT & CONSTRN,None
1188,1.3104506,103.6666935,BEF GUL CIRCLE,None
1189,1.343977267,103.7346234,PARC OASIS,None
1190,1.378568433,103.7620966,BT PANJANG STN EXIT A/ LRT,None
1191,1.376679011,103.8771254,BLK 953,None
1192,1.341242905,103.6790642,WEE KIM WEE SCH OF C&I,None
1193,1.378167316,103.8892863,BLK 568,None
1194,1.4240533,103.7586886,OPP S'PORE TURF CLUB,None
1195,1.330426519,103.6787049,S'PORE DISCOVERY CTR,None
1196,1.417475889,103.7012141,SG GEDONG CAMP,None
1197,1.376345909,103.890534,BLK 535,None
1198,1.339442843,103.7342424,BLK 114,None
1199,1.289378138,103.8617962,AFT S'PORE FLYER,None
1200,1.29595322,103.8579459,SUNTEC CITY,None
1201,1.311747802,103.6838515,AFT SHIPYARD RD,None
1202,1.322309859,103.790947,REGENT VILLA,None
1203,1.344290985,103.7362684,BLK 303,None
1204,1.270605976,103.8305623,TG PAGAR DP BLK F5,None
1205,1.421689672,103.8414383,BLK 676 CP,None
1206,1.300653342,103.8973684,TG KATONG RD STH P/G,None
1207,1.318517173,103.9101004,BEF LOR 110 CHANGI,None
1208,1.374577779,103.8839362,BLK 917,None
1209,1.339581306,103.7365702,BLK 112,None
1210,1.419205001,103.750728,DHDECO PTE LTD,None
1211,1.336820621,103.7181089,TAMAN JURONG GREENS,None
1212,1.35063765,103.9295458,SPRINGFIELD SEC SCH,None
1213,1.429304872,103.7066095,AFT LIM CHU KANG LANE 3A,None
1214,1.418900603,103.8406921,BLK 666,None
1215,1.300259069,103.823977,AFT ONE TREE HILL,None
1216,1.324344536,103.7218026,AFT CORPORATION PL,None
1217,1.369474386,103.8560397,BLK 570,None
1218,1.29866484,103.7634118,OPP WEST COAST LINK,None
1219,1.296394992,103.8515315,AFT BRAS BASAH STN EXIT A,None
1220,1.290711157,103.7884306,OPP REUTERS,None
1221,1.273944646,103.7980811,OPP MAPLETREE BIZ CITY,None
1222,1.375915102,103.8847056,BLK 687,None
1223,1.285249526,103.8606493,MARINA BAY SANDS THEATRE,None
1224,1.347266917,103.9577458,METTA WELFARE ASSN,None
1225,1.326925777,103.7156188,HUP LECK HEAVY EQUIPMENT,None
1226,1.358214317,103.7650716,HILLVIEW GREEN,None
1227,1.426386141,103.7489292,TROPICAL FURNITURE LTD,None
1228,1.297484458,103.7778705,BLK S12,None
1229,1.346727244,103.8809294,Raya Gdn,None
1230,1.30414828,103.7518073,GAS SVC INTL,None
1231,1.32335266,103.8163518,OPP BOTANIC GDNS STN,None
1232,1.293336974,103.8606427,PROMENADE STN,None
1233,1.282037312,103.8067172,BLK 114,None
1234,1.437907596,103.8035483,OPP BLK 639,None
1235,1.300549877,103.7782747,SIT DOVER,None
1236,1.464131579,103.8129846,SUNSHINE BAKERY,None
1237,1.286102105,103.7802399,GLORIA MANSION,None
1238,1.44532083,103.7756142,GES S'PORE,None
1239,1.397272953,103.7455434,OPP BLK 604A,None
1240,1.27685151,103.8641023,BEF GDNS BY THE BAY,None
1241,1.409399115,103.7796963,AFT MANDAI RD,None
1242,1.360195309,103.8854284,KOVAN STN EXIT C,None
1243,1.371302547,103.8703254,BLK 101,None
1244,1.37440645,103.7625803,OPP THE LINEAR,None
1245,1.255769186,103.8240314,RESORTS WORLD SENTOSA,None
1246,1.364835983,103.8969152,BLK 316,None
1247,1.353167619,103.7223685,BLK 402,None
1248,1.308010301,103.9035036,AFT DUKU RD,None
1249,1.318328691,103.8551001,S'PORE INDIAN ASSN,None
1250,1.373502428,103.8723686,BLK 530,None
1251,1.37775943,103.9758717,OPP LOYANG WAY 4,None
1252,1.409820504,103.8726463,AFT SELETAR CAMP,None
1253,1.436132029,103.8422182,BLK 250,None
1254,1.346914928,103.7157788,BET BLKS 523/525,None
1255,1.372316817,103.6944689,PUSARA AMAN MQUE,None
1256,1.273361686,103.8207683,BLK 28,None
1257,1.409342459,103.7009754,AFT TRACK 11,None
1258,1.2935102,103.842707,UE SQ/BEF MOHD SULTAN RD,None
1259,1.35726636,103.9416972,TAMPINES CONCOURSE INT,None
1260,1.416363368,103.7512326,OPP CROWN ALLIANCE INDUSTRIES,None
1261,1.28068191,103.7867872,AFT LOR SARHAD,None
1262,1.37271205,103.8521455,OPP BLK 522,None
1263,1.377216813,103.8463546,OPP GRANDEUR 8,None
1264,1.340875851,103.7550607,SBST BT BATOK DEPOT,None
1265,1.388363347,103.7710171,BLK 457,None
1266,1.35534424,103.8689241,BLK 233,None
1267,1.382639609,103.826088,BEF TAGORE RD,None
1268,1.323285635,103.7914893,OPP DYNASTY GDN II,None
1269,1.324526766,103.6856065,OPP LEROY-SOMER,None
1270,1.355735243,103.8697525,BLK 230,None
1271,1.391068469,103.8465674,UE BIZHUB CTRL,None
1272,1.318447521,103.951363,KEW GREEN CONDO,None
1273,1.384356234,103.9734259,OPP LOYANG WAY 6,None
1274,1.384295112,103.7648309,OPP BLK 532,None
1275,1.294758341,103.8567236,OPP SUNTEC CITY,None
1276,1.300055136,103.9062256,OPP PARKLAND GREEN,None
1277,1.387069973,103.8480299,SBST ANG MO KIO DEPOT,None
1278,1.340142601,103.8446571,BLK 117,None
1279,1.445017828,103.8162554,SEMBAWANG SEC SCH,None
1280,1.323469355,103.8418778,OPP NOVENA LODGE,None
1281,1.33422808,103.6478959,OPP SMC MFG,None
1282,1.344883305,103.700961,BLK 673C,None
1283,1.434274307,103.8263997,BLK 114,None
1284,1.342083903,103.7380016,BLK 229,None
1285,1.38558434,103.697741,BEF LOR SERAMBI,None
1286,1.353035906,103.7600235,THE PETALS CONDO,None
1287,1.294089914,103.7866886,OPP PSB SCIENCE PK BLDG,None
1288,1.350864603,103.7376348,OPP DULWICH COLL,None
1289,1.40413511,103.8925269,OPP BLK 227A,None
1290,1.312645436,103.919848,AFT COLDSTREAM AVE,None
1291,1.411296873,103.9002835,NIBONG STN EXIT B,None
1292,1.411587368,103.8999991,NIBONG STN EXIT A,None
1293,1.271898018,103.8063976,YEO'S BLDG,None
1294,1.440700632,103.7768359,BLK 10,None
1295,1.416530471,103.9024871,SAMUDERA STN EXIT A,None
1296,1.445659503,103.7732954,BLK 206,None
1297,1.423791859,103.838814,KHOO TECK PUAT HOSP,None
1298,1.279821091,103.8438625,OPP FAIRFIELD METH CH,None
1299,1.342325974,103.7591513,YUSOF ISHAK SEC SCH,None
1300,1.416184468,103.902634,SAMUDERA STN EXIT B,None
1301,1.366270394,103.8913163,OPP BLK 25,None
1302,1.417230996,103.9053382,AFT PUNGGOL PT STN,None
1303,1.399841921,103.7498804,REGENT GR CONDO,None
1304,1.426543119,103.8494725,BET BLKS 405/406,None
1305,1.417646392,103.9051538,BEF PUNGGOL PT STN,None
1306,1.329548519,103.6431819,OPP NISSIN TPT,None
1307,1.332521055,103.7776926,NGEE ANN POLY,None
1308,1.328530349,103.9400252,BLK 81,None
1309,1.42766177,103.7059559,OPP LIM CHU KANG LANE 3,None
1310,1.382240218,103.9463372,BEF PASIR RIS WAY,None
1311,1.296600883,103.8753345,OPP TG RIA CONDO,None
1312,1.435342766,103.7549339,AFT SMRT BUSES KRANJI DEPOT,None
1313,1.35939358,103.9523286,BLK 442,None
1314,1.323051793,103.6926547,NIPPON PAINT,None
1315,1.381206906,103.7691777,BLK 401A CP,None
1316,1.302351033,103.8369675,OPP MANDARIN ORCHARD,None
1317,1.357817606,103.8289513,AFT WINDSOR PK RD,None
1318,1.461479265,103.837562,OPP SEMBAWANG PK,None
1319,1.408867462,103.908666,AFT PUNGGOL DR,None
1320,1.442775204,103.7077479,AFT LIM CHU KANG LANE 8,None
1321,1.298983686,103.7941165,BEF WEYHILL CL,None
1322,1.337738752,103.8486838,JACKSON SQ,None
1323,1.373962618,103.9492797,PASIR RIS INT,None
1324,1.283928176,103.8177787,BT MERAH TOWN CTR,None
1325,1.291383633,103.8614008,MARINA CTR TER,None
1326,1.319540791,103.8435026,NOVENA STN,None
1327,1.345666607,103.9360364,OPP TEMASEK POLY EAST G,None
1328,1.374550539,103.7254257,AFT TRACK 14,None
1329,1.315869845,103.8470063,OPP CARLISLE RD,None
1330,1.331548002,103.9383169,OPP BLK 85,None
1331,1.337588674,103.91965,BLK 703,None
1332,1.383476471,103.9021271,KANGKAR STN EXIT B,None
1333,1.297632703,103.8801003,S'PORE SWIM CLUB,None
1334,1.34526506,103.74842,OPP BT BATOK SWIM CPLX,None
1335,1.307332607,103.657726,AFT PIONEER SECTOR 2,None
1336,1.379407891,103.8826528,OPP BLK 910,None
1337,1.297025363,103.8724557,OPP PEBBLE BAY,None
1338,1.284825224,103.8340254,BLK 55,None
1339,1.319705339,103.9351616,OPP TEMASEK JC,None
1340,1.279332062,103.7857328,BEF STH BUONA VISTA RD,None
1341,1.336480925,103.7424671,BLK 203,None
1342,1.291189242,103.8174457,OPP TANGLIN VIEW,None
1343,1.403254897,103.9054633,BLK 298,None
1344,1.345323434,103.8816134,BEF HOW SUN RD,None
1345,1.318085828,103.7879394,HSE NO. 578,None
1346,1.338494378,103.8704547,WOODLEIGH STN EXIT B,None
1347,1.40401012,103.9048548,BLK 303D,None
1348,1.377605369,103.7739695,OPP BLK 271,None
1349,1.338543149,103.7417019,BLK 207,None
1350,1.358537967,103.951167,BLK 444,None
1351,1.373051897,103.8752685,OPP BLK 506A,None
1352,1.367820238,103.9565245,OPP BLK 108,None
1353,1.34399904,103.7102713,OPP BLK 188,None
1354,1.352887679,103.7304422,BEF JURONG LODGE 1B,None
1355,1.336447722,103.7396974,BEF SEVENTH-DAY ADVENT CH,None
1356,1.370304728,103.8959531,OPP THE MIDTOWN,None
1357,1.354917106,103.8745618,S'GOON STADIUM,None
1358,1.430228886,103.8451869,BLK 342B,None
1359,1.347520659,103.7231631,YUHUA SEC SCH,None
1360,1.431458053,103.8295509,AFT CHONG PANG CC,None
1361,1.281416538,103.8183688,BEF BT MERAH CTRL,None
1362,1.346334624,103.6785031,SCH OF CEE,None
1363,1.387933188,103.9818735,OPP MARANATHA B-P CH,None
1364,1.311970524,103.658705,OPP JURONG INSP CTR,None
1365,1.374058388,103.9724695,AFT LOYANG WAY 1,None
1366,1.45588454,103.814944,Blk 483,None
1367,1.376869266,103.9138979,AFT OLD TAMPINES RD,None
1368,1.297958777,103.8305343,BEF ZION FULL GOSPEL CH,None
1369,1.358968316,103.8891646,OPP BLK 232,None
1370,1.292554191,103.8031057,BLK 158,None
1371,1.3794458,103.7405261,BLK 289,None
1372,1.320813692,103.7620904,BLK 203,None
1373,1.349852357,103.7193511,BLK 501,None
1374,1.330169059,103.9037949,BLK 311,None
1375,1.332983015,103.8465292,OPP TOA PAYOH STN,None
1376,1.370367154,103.8582472,BLK 561,None
1377,1.325746816,103.935317,BLK 220 CP,None
1378,1.346910118,103.7645169,OPP AUTOBACS,None
1379,1.342661063,103.7374369,BLK 252,None
1380,1.268320801,103.8282329,OPP KEPPEL DP BLK 517,None
1381,1.410734806,103.7831329,LP 159,None
1382,1.372110606,103.6903757,BEF TRACK 33,None
1383,1.32400274,103.8102116,CORONATION PLAZA,None
1384,1.433129262,103.7881579,BLK 511,None
1385,1.339619844,103.7577672,OPP MIDVIEW BLDG,None
1386,1.29943538,103.7525655,OPP SIA HUAT,None
1387,1.323267333,103.7095651,BEF TRACTOR RD,None
1388,1.354801894,103.9436442,TAMPINES INT,None
1389,1.40240152,103.8707366,AFT BAKER ST,None
1390,1.329930281,103.8439046,TRELLIS TWRS,None
1391,1.328810233,103.9307938,BLK 416,None
1392,1.424867802,103.7568358,AFT W'LANDS RD,None
1393,1.383026332,103.7485931,OPP BLK 210,None
1394,1.349491965,103.6971106,BLK 861,None
1395,1.350340432,103.7007495,BET BLKS 757 / 758,None
1396,1.374246763,103.8507606,BLK 507,None
1397,1.369958375,103.6873649,AFT NIRVANA MEMORIAL GDN,None
1398,1.331577836,103.8389067,OPP S'PORE POLO CLUB,None
1399,1.317665326,103.6564166,YCH DISTRIPK,None
1400,1.348439118,103.9298219,OPP TEMASEK POLY WEST G,None
1401,1.359891698,103.7464313,BLK 315,None
1402,1.374535946,103.9481382,AFT PASIR RIS DR 3,None
1403,1.381519275,103.8438719,OPP YIO CHU KANG STN,None
1404,1.296916385,103.8525546,HOTEL GRAND PACIFIC,None
1405,1.369514014,103.970593,LOYANG VALLEY,None
1406,1.376226661,103.7378592,BLK 483,None
1407,1.293593714,103.8328466,OPP GREAT WORLD CITY,None
1408,1.43485527,103.7552163,LIP GUAN IND,None
1409,1.39810865,103.8288131,AFT SLE,None
1410,1.376141673,103.8533393,OPP BLK 538,None
1411,1.30324001,103.855423,CH OF OUR LADY OF LOURDER,None
1412,1.387709918,103.7459036,NORTHVALE CONDO,None
1413,1.325430175,103.8593822,BLK 29,None
1414,1.392568713,103.8368598,OPP BULLION PK,None
1415,1.3786897,103.9426859,PASIR RIS ELIAS CC,None
1416,1.295774178,103.8395743,BEF KIM YAM RD,None
1417,1.427362355,103.7957198,Opp Blk 589,None
1418,1.388499861,103.7408718,BLK 511A,None
1419,1.44774792,103.813588,OPP BLK 469B,None
1420,1.374130001,103.960974,BLK 485,None
1421,1.347477849,103.7482888,OPP BLK 102,None
1422,1.364923393,103.7685455,BEF DAIRY FARM EST NTH GATE,None
1423,1.348156898,103.84846,BLK 115,None
1424,1.370038238,103.9569039,BLK 429,None
1425,1.384643609,103.7577718,OPP BLK 632 CP,None
1426,1.302996116,103.7459578,AFT PANDAN RD,None
1427,1.383746364,103.7606945,WEST VIEW PRI SCH,None
1428,1.417807343,103.7547855,BEF JLN BUMBONG,None
1429,1.347774005,103.97213,SEAMAP,None
1430,1.304803796,103.7693658,BLK 610,None
1431,1.353440792,103.8779448,AFT UPP S'GOON SHOP CTR,None
1432,1.398495634,103.8729752,OPP JLN TARI LILIN,None
1433,1.430161112,103.8287894,BLK 701,None
1434,1.376484881,103.8500873,NANYANG POLY,None
1435,1.320694491,103.9426825,BLK 71,None
1436,1.414235852,103.9094216,OPP PUNGGOL 17TH AVE,None
1437,1.410530655,103.752279,OPP KIM HOCK CORP PTE LTD,None
1438,1.339152224,103.7635733,AFT TOH TUCK RISE,None
1439,1.339401047,103.7639057,BEF TOH TUCK RISE,None
1440,1.403501667,103.747729,OPP BLK 670,None
1441,1.333115849,103.9159963,CHRIST CH,None
1442,1.306299606,103.8017397,BLK 97,None
1443,1.438947018,103.794132,AFT 888 PLAZA,None
1444,1.338010457,103.8482708,OPP JACKSON SQ,None
1445,1.329172601,103.8970613,BLK 3023,None
1446,1.355947727,103.9371769,BET BLKS 701/702,None
1447,1.357951598,103.8451725,OPP BISHAN NTH SHOP MALL,None
1448,1.325889855,103.719071,OPP CORPORATION PL,None
1449,1.381536936,103.7513802,OPP CCK POLYCLINIC,None
1450,1.404502404,103.7018533,AFT LP 161,None
1451,1.352659225,103.8883713,BLK 115,None
1452,1.327470552,103.6455498,OPP KYOCERA CHEMICAL,None
1453,1.3332124,103.9561696,EXPO HALLS 1/2/3,None
1454,1.433531837,103.7079172,OPP LIM CHU KANG LANE 4,None
1455,1.394161906,103.91607,RIVIERA STN EXIT A,None
1456,1.344987139,103.7461301,BLK 190,None
1457,1.374202535,103.9497612,PASIR RIS INT,None
1458,1.32852369,103.8663622,OPP ST. ANDREW'S VILLAGE,None
1459,1.329951339,103.7429281,OPP JURONG TOWN HALL,None
1460,1.349354281,103.7579381,BLK 254,None
1461,1.304238696,103.76452,BLK 726 CLEMENTI WEST MKT,None
1462,1.308020993,103.7337207,SANMINA-SCI,None
1463,1.327639081,103.6855426,AFT FIFTH LOK YANG RD,None
1464,1.286068723,103.8386912,OPP BLK 13,None
1465,1.319263623,103.8257131,AFT STEVENS STN,None
1466,1.413357667,103.7559403,AFT JLN BUMBONG,None
1467,1.330968233,103.6738475,PASIR LABA CAMP,None
1468,1.325659323,103.8557832,ST. MICHAEL'S TER,None
1469,1.41920084,103.8638932,OPP SELETAR AIRPORT,None
1470,1.293853362,103.7670387,VARSITY PK,None
1471,1.333282472,103.9390379,BLK 88,None
1472,1.441828445,103.8030896,OPP BLK 793,None
1473,1.328979053,103.8025678,OPP NATL JC,None
1474,1.375086934,103.8951594,BLK 421,None
1475,1.381813825,103.7453612,BLK 220,None
1476,1.372074764,103.8332154,ST NICHOLAS GIRLS',None
1477,1.331143675,103.8502036,OPP TOA PAYOH SWIM CPLX,None
1478,1.375135652,103.9621541,OPP BLK 233,None
1479,1.386678772,103.8962908,BLK 206A,None
1480,1.324755651,103.8102061,OPP CORONATION PLAZA,None
1481,1.378890704,103.8789124,BLK 969,None
1482,1.466432533,103.8106917,AFT SENOKO WAY,None
1483,1.299882555,103.7930138,OPP WEYHILL CL,None
1484,1.269722762,103.8128477,OPP CHR COMMUNITY CHAPEL,None
1485,1.328236355,103.9053848,BLK 322,None
1486,1.351198077,103.9309621,BLK 888,None
1487,1.349842271,103.9343446,BLK 831,None
1488,1.365461447,103.7506306,HOMETEAMNS,None
1489,1.363579978,103.8479363,TECK GHEE CT,None
1490,1.384955792,103.9718518,AFT LOYANG WAY,None
1491,1.320997414,103.9433222,SIGLAP CC / OPP BLK 71,None
1492,1.300373892,103.8572016,PARKVIEW SQ,None
1493,1.423196848,103.7501913,AFT LCS OPTIROC PTE LTD,None
1494,1.413575773,103.7518989,SIT LEY TIMBER,None
1495,1.43436284,103.772573,MARSILING PR SCH,None
1496,1.388260441,103.9872226,BLK 5,None
1497,1.287119474,103.8397791,BLK 8,None
1498,1.373696021,103.7142881,TENGAH AIR BASE,None
1499,1.280368335,103.8271457,BLK 201,None
1500,1.375648923,103.855781,OPP ITE COLLEGE CTRL,None
1501,1.30454796,103.7429047,OPP CALTEX S'PORE,None
1502,1.329511542,103.6864965,AFT KIAN TECK RD,None
1503,1.314317537,103.906908,BEF STILL RD,None
1504,1.419168871,103.7021463,B20 LIM CHU KANG RD,None
1505,1.346234721,103.7029297,JURONG WEST SUB-STN,None
1506,1.268396341,103.8162476,BEF SEAH IM RD,None
1507,1.319294971,103.9259461,AFT SWAN LAKE AVE,None
1508,1.327579782,103.645264,KYOCERA CHEMICAL,None
1509,1.314645057,103.8405858,OPP NEWTON LIFE CH,None
1510,1.434709049,103.7508943,OPP SHINGDA CONSTRUCTION,None
1511,1.340858993,103.6971474,BLK 639,None
1512,1.373891198,103.8755172,BLK 504A CP,None
1513,1.346655964,103.7592601,CH OF ST MARY,None
1514,1.348804939,103.9511971,ANGSANA PR SCH,None
1515,1.299039252,103.8267571,GRAMERCY PK,None
1516,1.371266165,103.9621896,BLK 242,None
1517,1.439485067,103.7977643,BLK 666,None
1518,1.388666522,103.8344195,AFT LENTOR ST,None
1519,1.309806539,103.6792035,BEF BENOI RD,None
1520,1.309440907,103.8965551,TG KATONG SEC SCH,None
1521,1.33701879,103.8597198,BLK 231,None
1522,1.347898903,103.7358273,AFT BT BATOK RD,None
1523,1.369318191,103.8719148,BLK 112,None
1524,1.31120525,103.8011052,AFT ESTORIL MANSIONS,None
1525,1.371400615,103.8917283,OPP HOUGANG CTRL INT,None
1526,1.265958292,103.8200915,HARBOURFRONT STN EXIT A,None
1527,1.495439378,103.7431794,LARKIN TER,None
1528,1.327663582,103.6885732,BEF KIAN TECK RD,None
1529,1.356020054,103.9873427,CHANGI AIRPORT PTB3,None
1530,1.286300415,103.8082835,BLK 1,None
1531,1.436056518,103.7976152,BLK 664,None
1532,1.288126941,103.8335247,BLK 94,None
1533,1.450909353,103.8284646,BLK 592C,None
1534,1.280206605,103.8402425,OUTRAM PK STN EXIT H,None
1535,1.277462886,103.8383361,BLK 3,None
1536,1.345500707,103.969968,SATS CATERING,None
1537,1.313615543,103.7012229,BEF TG KLING RD,None
1538,1.321250585,103.7900955,OPP REGENT VILLA,None
1539,1.336422794,103.8460577,BLK 138B,None
1540,1.28914153,103.6302373,MULTICO,None
1541,1.348586983,103.7545484,BLK 229,None
1542,1.322840116,103.6987043,MARKONO HOLDINGS,None
1543,1.304544539,103.828926,OPP FOUR SEASONS HOTEL,None
1544,1.320259963,103.9470272,BLK 163,None
1545,1.326328059,103.7643346,OPP LOGISHUB @ CLEMENTI,None
1546,1.30986961,103.7681661,OPP BLK 420A,None
1547,1.315438783,103.6452168,HIAP SENG ENGRG LTD,None
1548,1.364572844,103.9589866,OPP BLK 187,None
1549,1.298578524,103.8023688,BLK 42,None
1550,1.362507731,103.9310644,BEF TAMPINES AVE 9,None
1551,1.291239257,103.8040315,TIONG GHEE TP,None
1552,1.364679452,103.9618634,OPP WHITE SANDS PRI SCH,None
1553,1.411488885,103.7000587,OPP LP 173,None
1554,1.376571967,103.9133792,BEF TPE,None
1555,1.346504555,103.7518259,BT VIEW SEC SCH,None
1556,1.332301251,103.9301327,BKJ 515,None
1557,1.336656544,103.7494082,OPP JURONG EAST WAREHSE,None
1558,1.450521212,103.8166145,BLK 474,None
1559,1.355586938,103.7619808,HILLVIEW APTS,None
1560,1.343404307,103.7121367,BLK 191,None
1561,1.369693001,103.9484728,OPP BLK 569,None
1562,1.311267315,103.9334363,HUA XIN CT,None
1563,1.31430767,103.935768,OPP EVERGREEN AVE,None
1564,1.342177385,103.8360625,MACRITCHIE RESERVOIR,None
1565,1.43451248,103.8299593,BLK 121,None
1566,1.387562636,103.9792346,OPP OLD PIER ROAD,None
1567,1.30834996,103.7883109,BLK 15,None
1568,1.387658664,103.9783669,AFT OLD PIER RD,None
1569,1.381881327,103.8817641,OPP BLK 984A,None
1570,1.383466303,103.8824916,BLK 991B,None
1571,1.37315288,103.9265722,T5@TAMPINES,None
1572,1.321690367,103.9323851,BLK 3,None
1573,1.291668508,103.826142,BLK 4,None
1574,1.333470591,103.9388767,BLK 99,None
1575,1.327538331,103.674591,AFT JOO KOON CRES,None
1576,1.371614662,103.7675845,CASHEW PK CONDO,None
1577,1.290070328,103.7891702,BEF REUTERS,None
1578,1.324592501,103.8532441,BEF KIM KEAT LANE,None
1579,1.369221817,103.8780186,OPP BLK 634,None
1580,1.347790851,103.6865037,OPP HALL 6,None
1581,1.337322324,103.950686,OPP BLK 3012,None
1582,1.359867949,103.9553492,BLK 464,None
1583,1.317484674,103.6297329,BEF TUAS STH AVE 2,None
1584,1.353659187,103.8910022,BLK 106,None
1585,1.336445706,103.7350173,BLK 118,None
1586,1.333291792,103.9315435,BLK 509,None
1587,1.372333459,103.8977056,BLK 465A,None
1588,1.336373809,103.9183157,BET BLKS 705/706,None
1589,1.319754531,103.7736234,PINE GR CONDO,None
1590,1.310870517,103.8942809,AFT IPOH LANE,None
1591,1.371401328,103.88699,BLK 602,None
1592,1.381152428,103.7659084,OPP LOMPANG RD,None
1593,1.307983588,103.8952161,TG KATONG GIRLS' SCH,None
1594,1.335722201,103.7571599,OPP UNI-TECH CTR,None
1595,1.373940518,103.7525745,BT BATOK FIRE STN,None
1596,1.361290255,103.8903098,THE TEMBUSU,None
1597,1.348212065,103.8801825,OPP BETHANY PRESBY CH,None
1598,1.376751283,103.9562447,OPP DOWNTOWN EAST,None
1599,1.336218593,103.8553544,UNITED MEDICARE CTR,None
1600,1.420491348,103.8349728,BLK 608,None
1601,1.302794833,103.8012253,OPP QUEENSWAY SEC SCH,None
1602,1.297085677,103.8076812,OPP QUEENSTOWN PR SCH,None
1603,1.354058833,103.9314436,BLK 874,None
1604,1.384483664,103.7650455,BLK 532,None
1605,1.385167364,103.9997667,POLICE PASS OFF,None
1606,1.373209617,103.7702561,OPP BT PANJANG PR SCH,None
1607,1.302739448,103.8299127,BEF ORCHARD BLVD,None
1608,1.273787339,103.8285241,ST. TERESA'S CH,None
1609,1.317287265,103.6582332,AFT TUAS AVE 5,None
1610,1.385625602,103.8459411,BEF ANG MO KIO AVE 9,None
1611,1.273198688,103.8130092,OPP BLK 55,None
1612,1.458739684,103.836554,AFT ANDREWS AVE,None
1613,1.378513594,103.7435161,AFT BLK 272,None
1614,1.327762635,103.8408974,OPP TAN TONG MENG TWR,None
1615,1.377280341,103.8379142,BLK 617,None
1616,1.348569124,103.8748322,BLK 421,None
1617,1.277422028,103.8321581,BLK 149,None
1618,1.378050111,103.8895492,BLK 537,None
1619,1.374956468,103.861755,BLK 5056,None
1620,1.391263926,103.8460583,OPP UE BIZHUB CTRL,None
1621,1.3783263,103.8472053,OPP NANYANG POLY,None
1622,1.389381836,103.8406743,AFT YIO CHU KANG RD,None
1623,1.373563472,103.7729091,OPP BLK 219,None
1624,1.424343596,103.8256465,KHATIB CAMP,None
1625,1.303978202,103.697289,JURONG SHIPYARD,None
1626,1.33325962,103.7921565,AFT SWISS CLUB RD,None
1627,1.411112984,103.7832437,LP 162,None
1628,1.312716795,103.9341507,OPP EASTERN LAGOON II,None
1629,1.389306434,103.8655683,OPP DEDAP RD,None
1630,1.307599375,103.79429,BLK 9,None
1631,1.391375654,103.7451666,BLK 702,None
1632,1.325449126,103.9421108,BLK 55,None
1633,1.305031505,103.6968646,OPP TANOTO SHIPYARD,None
1634,1.367159021,103.8963638,BLK 308,None
1635,1.434291516,103.8391983,BLK 236,None
1636,1.323155547,103.881469,BLK 125,None
1637,1.355746942,103.8413397,OPP WHITLEY SEC SCH,None
1638,1.344274891,103.8477907,OPP BLK 1004,None
1639,1.430833959,103.8005755,OPP TWINS FOUNTAIN,None
1640,1.431057784,103.800495,TWINS FOUNTAIN,None
1641,1.335499664,103.9532101,OPP ITE COLL EAST TEC BLK,None
1642,1.300317706,103.8387003,SOMERSET STN,None
1643,1.43033165,103.7948529,BLK 583,None
1644,1.376839891,103.7362876,BLK 464,None
1645,1.314731859,103.9189692,BEF ROSEBURN AVE,None
1646,1.436581581,103.7081195,BEF LIM CHU KANG LANE 6,None
1647,1.434930184,103.8303063,OPP BLK 121,None
1648,1.416562796,103.7513767,ASIA RATTAN,None
1649,1.350458941,103.8717396,SERANGOON INT,None
1650,1.357120498,103.965174,OPP PALM ISLES,None
1651,1.30520069,103.6255704,BEF TUAS STH AVE 6,None
1652,1.334654368,103.6978948,OPP BLK 655 CP,None
1653,1.431889892,103.7719592,BLK 402,None
1654,1.334989856,103.7092228,BEECHAM PTE LTD,None
1655,1.387755476,103.8699015,THE GREENWICH,None
1656,1.385402386,103.6974396,AFT MURAI FARMWAY,None
1657,1.387004042,103.7605836,WEST SPRING SEC SCH,None
1658,1.318758962,103.8464767,REVIVAL CTR CH,None
1659,1.314038622,103.8873457,AFT LOR 34 GEYLANG,None
1660,1.369442227,103.8286233,BEF ANG MO KIO AVE 1,None
1661,1.347020921,103.9328165,OPP TEMASEK POLY,None
1662,1.354949273,103.9509261,BLK 230B,None
1663,1.357362853,103.7531352,BT GOMBAK STADIUM,None
1664,1.382932986,103.8891054,AFT BUANGKOK DR,None
1665,1.395875806,103.8803794,BLK 471A,None
1666,1.349753422,103.9341197,BLK 827,None
1667,1.386041677,103.9063122,BLK 121E,None
1668,1.302470756,103.9147815,OPP CP C3,None
1669,1.337205463,103.7522927,ALLIANCE BLDG,None
1670,1.442763963,103.8304192,OPP CANBERRA STN,None
1671,1.349299702,103.8373499,SHUNFU EST,None
1672,1.327019256,103.8673428,AFT MOONSTONE LANE,None
1673,1.367586278,103.7501228,BT BATOK DRIVING CTR,None
1674,1.431651871,103.798188,AFT WOODLANDS DR 53,None
1675,1.309122874,103.6749908,OPP KEPPEL LOGISTICS,None
1676,1.310395635,103.8717963,LOR 1 GEYLANG TER,None
1677,1.398544573,103.699667,AFT LP 93,None
1678,1.410003598,103.7664596,POLICE TACTICAL TRG CAMP,None
1679,1.276443408,103.6357358,OPP SLS,None
1680,1.351090947,103.8821352,THE MINTON,None
1681,1.442610621,103.8301515,CANBERRA STN,None
1682,1.395423382,103.8809707,OPP BLK 471A,None
1683,1.367860775,103.8318029,AFT ANG MO KIO AVE 2,None
1684,1.367943523,103.9517112,BLK 555,None
1685,1.431531333,103.7981004,BLK 573A,None
1686,1.393796873,103.8693033,BLK 459B,None
1687,1.392876367,103.8689757,OPP BLK 459B,None
1688,1.287959983,103.7787534,S'PORE SCIENCE PK II,None
1689,1.450710781,103.8102582,OPP BLK 20,None
1690,1.346853721,103.8416563,OPP BOSCH,None
1691,1.276300614,103.8312675,OPP MELATI BLK 2,None
1692,1.429339313,103.7472342,WASON WOOD IND,None
1693,1.368902932,103.8582652,OPP BLK 565,None
1694,1.429265085,103.7979795,OPP WOODGROVE SEC SCH,None
1695,1.377407865,103.8716362,OPP SEAGATE,None
1696,1.36496026,103.9618283,AFT BLK 182,None
1697,1.338615873,103.6474594,OPP ASIA-PACIFIC BREWERY,None
1698,1.374980747,103.897803,PUNGGOL PK,None
1699,1.385986444,103.9035114,BLK 119D,None
1700,1.345494564,103.946999,OPP TAMPINES CHANGKAT CC,None
1701,1.284917324,103.8209955,BLK 116,None
1702,1.348742876,103.7521192,BLK 644,None
1703,1.272358454,103.838523,OPP FORMER RAILWAY STN,None
1704,1.346481647,103.7214683,OPP BLK 515,None
1705,1.34861176,103.8804426,AFT PAYA LEBAR CRES,None
1706,1.275660425,103.8068263,BLK 92B,None
1707,1.307788949,103.6986514,NATL OXYGEN PTE LTD,None
1708,1.326135621,103.7659228,SUNSET WAY P/G,None
1709,1.367805852,103.8506034,BLK 422,None
1710,1.429269944,103.7750982,FUCHUN CC,None
1711,1.382991956,103.8895838,BEF BUANGKOK DR,None
1712,1.280197034,103.8495396,OPP SO SOFITEL S'PORE,None
1713,1.272182286,103.8339316,KEPPEL WORKSHOP,None
1714,1.386076012,103.8950668,OPP BLK 203A,None
1715,1.390984352,103.8769841,OPP FERNVALE STN,None
1716,1.37367159,103.9561062,BLK 405,None
1717,1.295529083,103.6709645,KEPPEL SHIPYARD,None
1718,1.314728032,103.7180428,BEF JURONG PORT RD,None
1719,1.32805373,103.7514612,AFT BOON LAY SUB STN,None
1720,1.405582233,103.8079833,UPP SELETAR RESVR,None
1721,1.396721341,103.9146495,BLK 162B,None
1722,1.398885572,103.906767,COVE STN EXIT B,None
1723,1.448005599,103.8095567,BLK 15,None
1724,1.300956003,103.7726729,NUS RAFFLES HALL,None
1725,1.338874927,103.7241396,CHINESE GDN,None
1726,1.383577575,103.7659767,OPP BLK 502,None
1727,1.370793585,103.8456581,BEF AL-MUTTAQIN MQUE,None
1728,1.362444561,103.8677486,CHUAN TERR,None
1729,1.3480761,103.9451798,BLK 141,None
1730,1.276788712,103.840568,MARITIME HSE,None
1731,1.454733011,103.8008367,BEF ADMIRALTY RD WEST,None
1732,1.314953397,103.6537868,OPP TRUSSCO PTE LTD,None
1733,1.34247722,103.7143923,BLK 200,None
1734,1.35996161,103.8739416,BEF TAI SENG CHR CH,None
1735,1.344472444,103.7274582,OPP JURONG LAKE,None
1736,1.362700595,103.8876205,OPP GLAD TIDINGS CH,None
1737,1.417806674,103.8377196,BLK 630,None
1738,1.304813883,103.6921491,FAR EAST LEVINGSTON,None
1739,1.385290823,103.8232522,BEF TAGORE DR,None
1740,1.304031634,103.8587842,STAMFORD PR SCH,None
1741,1.356096237,103.9654766,PARC OLYMPIA,None
1742,1.453326082,103.8108829,OPP BLK 22,None
1743,1.281644462,103.8092369,BLK 110,None
1744,1.334661978,103.7009672,OPP BLK 657 CP,None
1745,1.328735114,103.9055153,EUNOS MANSIONS,None
1746,1.428554307,103.830569,BLK 731,None
1747,1.290625895,103.8235321,GAN ENG SENG SEC SCH,None
1748,1.396489721,103.9092147,MERDIAN STN EXIT A,None
1749,1.323942057,103.8515459,AFT PEGU RD,None
1750,1.324669091,103.6956638,HOE KENG MOTOR,None
1751,1.32546208,103.9111113,BLK 102,None
1752,1.313538405,103.8848321,AFT LOR 28 GEYLANG,None
1753,1.389103526,103.8437626,NCS HUB,None
1754,1.335900069,103.8705066,OPP WOODLEIGH PK,None
1755,1.265956337,103.8224083,OPP VIVOCITY,None
1756,1.337777377,103.6971496,PIONEER STN EXIT B,None
1757,1.402089663,103.8273667,BEF SG SELETAR BRIDGE,None
1758,1.355018573,103.9891614,CHANGI AIRPORT PTB2,None
1759,1.383376795,103.9781707,BEF SCH OF COMMANDO,None
1760,1.324892799,103.8509451,SHAW PLAZA,None
1761,1.346542158,103.7567725,KEMING PR SCH,None
1762,1.462133602,103.8379316,SEMBAWANG PK,None
1763,1.319090233,103.7105255,AFT JLN PESAWAT,None
1764,1.29812759,103.8823923,DUNMAN HIGH SCH,None
1765,1.286975782,103.8454171,OPP HONG LIM PK,None
1766,1.421827797,103.7032618,OPP NEO TIEW RD,None
1767,1.284035226,103.8452605,OPP HONG LIM CPLX,None
1768,1.346091354,103.734211,BLK 306,None
1769,1.322692711,103.874069,AFT INFINEON,None
1770,1.434899817,103.7755111,BLK 154,None
1771,1.380631566,103.8323027,AFT MUNSHI ADULLAH AVE,None
1772,1.274883257,103.8213632,OPP BLK 27,None
1773,1.384041928,103.9042872,OPP BLK 119A,None
1774,1.3902325,103.9930284,BEF CHANGI BEACH CP 3,None
1775,1.350665691,103.7185268,BLK 502,None
1776,1.427476271,103.7738004,BLK 425,None
1777,1.439234147,103.8037864,BLK 681A,None
1778,1.325098146,103.6514374,JAS METAL COATINGS,None
1779,1.327557905,103.9252002,BLK 42,None
1780,1.290880809,103.8118157,OPP MOTOR IMAGE,None
1781,1.311587528,103.7635212,BLK 426,None
1782,1.346338438,103.7212701,BLK 515,None
1783,1.415104351,103.7002464,OPP TRACK 13,None
1784,1.343810047,103.7106053,BLK 188,None
1785,1.32249593,103.8768542,AFT KALLANG WAY 1,None
1786,1.31032356,103.8585966,AFT ALLENBY RD,None
1787,1.324917637,103.7589817,AFT TOH TUCK AVE,None
1788,1.37896836,103.847267,NANYANG POLY,None
1789,1.333499432,103.8378757,OPP SLF CPLX,None
1790,1.316575431,103.7353915,AFT PENJURU PL,None
1791,1.332320722,103.8950732,OPP HDB CP,None
1792,1.284444482,103.8491814,OCBC CTR,None
1793,1.373169335,103.948372,AFT PASIR RIS ST 53,None
1794,1.42405484,103.8315851,OPP BLK 774,None
1795,1.385890384,103.8476765,ANG MO KIO DEPOT,None
1796,1.384883331,103.7628818,BLK 537A CP,None
1797,1.440353195,103.8381466,BLK 289,None
1798,1.291973474,103.7686045,AFT PALM GREEN CONDO,None
1799,1.317479828,103.6300912,AFT TUAS STH AVE 2,None
1800,1.462254389,103.8038947,AFT SENOKO DR,None
1801,1.318460504,103.7465859,BLK 411,None
1802,1.436920241,103.785713,WOODLANDS REG INT,None
1803,1.318024594,103.6765925,SING HUAT HARDWARE,None
1804,1.447210661,103.814541,OPP BLK 336A CP,None
1805,1.370022551,103.8745392,BLK 151,None
1806,1.31390796,103.8818729,OPP KH PLAZA,None
1807,1.35024307,103.9524009,BLK 285,None
1808,1.272458416,103.8237738,BLK 40,None
1809,1.327904926,103.6910982,SKK (S) PTE LTD,None
1810,1.304879602,103.7031317,JURONG SHIPYARD,None
1811,1.318928284,103.9122803,MJD KASSIM,None
1812,1.375523942,103.9375957,OPP BLKS 771/772,None
1813,1.423188246,103.8441147,BET BLKS 445/449,None
1814,1.289514574,103.6273689,AFT TUAS VIEW CRES,None
1815,1.323528071,103.912678,KG KEMBANGAN CC,None
1816,1.361965808,103.7474517,BLK 324,None
1817,1.348169047,103.6985892,BLK 749,None
1818,1.326650612,103.9513022,OPP MAN FATT LAM TP,None
1819,1.335285603,103.7089656,OPP BEECHAM PTE LTD,None
1820,1.315622736,103.858958,BEF S'GOON RD,None
1821,1.388897467,103.9873588,BLK 4,None
1822,1.298150472,103.6685669,S'PORE TAKADA IND,None
1823,1.343945961,103.7586862,BLK 289E,None
1824,1.368367138,103.8626234,OPP PORTCHESTER AVE,None
1825,1.355642495,103.9360065,BLK 863,None
1826,1.411902897,103.7579025,AFT W'LANDS RD,None
1827,1.354902283,103.943558,TAMPINES INT,None
1828,1.321035012,103.7802853,OPP PANDAN VALLEY CONDO,None
1829,1.377963903,103.8966353,BLK 458,None
1830,1.295626424,103.7941327,AFT WHITCHURCH RD,None
1831,1.423354877,103.846914,OPP BLK 419,None
1832,1.3288154,103.8869685,BLK 36,None
1833,1.384429924,103.9022963,KANGKAR STN EXIT A,None
1834,1.365864017,103.9753677,CHANGI BAPTIST CH,None
1835,1.432414282,103.7744897,MARSILING STN,None
1836,1.423814652,103.7586059,S'PORE TURF CLUB,None
1837,1.344776649,103.8709854,AFT SUNSHINE LODGE,None
1838,1.33208253,103.9343126,BLK 109,None
1839,1.354721884,103.8658223,CARDIFF RESIDENCE,None
1840,1.302342884,103.7647943,WEST COAST CC,None
1841,1.322907896,103.6773539,LIANG HUAT IND CPLX,None
1842,1.436443238,103.7738256,OPP BLK 146,None
1843,1.324525789,103.6957672,AFT PIONEER RD NTH,None
1844,1.351852764,103.9679462,AFT VICOM,None
1845,1.302562448,103.7828546,OPP ACS BOARDING SCH,None
1846,1.290910284,103.8241094,OPP GAN ENG SENG SEC SCH,None
1847,1.37753017,103.8814828,HOUGANG PR SCH,None
1848,1.352234731,103.9679414,AFT UPP CHANGI RD NTH,None
1849,1.349681151,103.7196725,BLK 458,None
1850,1.291784605,103.8552789,OPP WAR MEMORIAL PK,None
1851,1.391744311,103.8182233,BEF SLE,None
1852,1.313987996,103.711932,BEF JURONG PIER RD,None
1853,1.297547176,103.778003,OPP UNIVERSITY HALL,None
1854,1.430651597,103.7827789,AFT BLK 336,None
1855,1.315823175,103.8861371,BLK 134,None
1856,1.379546039,103.885604,OPP BLK 579,None
1857,1.305549055,103.8605688,OPP BLK 461,None
1858,1.306336717,103.8143504,AFT MIN OF FOREIGN AFFAIRS,None
1859,1.375645959,103.9767273,AFT ENGINE TEST FACILITY,None
1860,1.324682211,103.6856398,LEROY-SOMER,None
1861,1.281099286,103.8252219,BLK 104,None
1862,1.279045911,103.8386938,OUTRAM PK STN EXIT F / SGH,None
1863,1.368458564,103.8762235,BEF YIO CHU KANG CHAPEL,None
1864,1.346041074,103.7676723,AFT BT BATOK EAST AVE 6,None
1865,1.275309787,103.8431265,TG PAGAR PLAZA,None
1866,1.311492864,103.9503758,AFT E.C. SEA SPORTS CLUB,None
1867,1.286670044,103.8058074,PK HOTEL ALEXANDRA,None
1868,1.40497148,103.896983,BEF SOO TECK STN,None
1869,1.288372788,103.7931547,NORMANTON PK,None
1870,1.317664802,103.6509377,BEF PENGUIN INT'L LTD,None
1871,1.447021402,103.7692663,W'LANDS CHECKPT,None
1872,1.431853117,103.7476003,ENG HUA FURNITURE MFG PTE LTD,None
1873,1.404535007,103.8972325,AFT SOO TECK STN,None
1874,1.332974306,103.7204217,OPP BLK 178,None
1875,1.333256963,103.7205579,BLK 178,None
1876,1.30080001,103.7699121,THE JAPANESE PR SCH,None
1877,1.384102974,103.8807052,BLK 998B,None
1878,1.3920016,103.7467485,BLK 754,None
1879,1.357703429,103.9362731,POI CHING SCH,None
1880,1.308642821,103.6320931,RS COMPONENTS,None
1881,1.365203112,103.7685784,OPP DAIRY FARM EST STH GATE,None
1882,1.428635805,103.7883389,OPP BLK 567B,None
1883,1.299235589,103.8586705,OPP THE GATEWAY,None
1884,1.287413575,103.8234095,OPP TIONG BAHRU PK,None
1885,1.374528812,103.8509014,OPP BLK 507,None
1886,1.328539614,103.870508,AFT TAI THONG CRES,None
1887,1.30401947,103.8220589,OPP BRITISH HIGH COMSN,None
1888,1.371982467,103.8768952,GRACEHAVEN S ARMY,None
1889,1.317088971,103.7199236,CWT DISTRIPARK,None
1890,1.329316215,103.8437657,OPP TRELLIS TWRS,None
1891,1.375187379,103.8747306,OPP BLK 531,None
1892,1.36625863,103.8749469,BLK 133,None
1893,1.396505391,103.8731333,AFT ABUNDANT GRACE CH,None
1894,1.304762268,103.9028934,OPP ROXY SQ,None
1895,1.328332336,103.9228043,OPP BLKS 50/51,None
1896,1.384010278,103.8930407,BUANGKOK STN EXIT A,None
1897,1.31281728,103.7668534,BLK 329,None
1898,1.391627379,103.7405097,BLK 523,None
1899,1.291113271,103.8078527,LEA HIN HARDWARE FTY,None
1900,1.292695489,103.8609353,PROMENADE STN,None
1901,1.271165549,103.8095186,OPP TELOK BLANGAH STN,None
1902,1.323616193,103.8870269,BLK 90,None
1903,1.312815326,103.9199982,BEF FRANKEL PL,None
1904,1.326612277,103.7387514,CARRIER S'PORE,None
1905,1.374181608,103.8788189,BLK 941A,None
1906,1.275759985,103.8134164,BLK 59,None
1907,1.398888973,103.9047508,BLK 102C,None
1908,1.325922341,103.6472336,AFT TUAS AVE 8,None
1909,1.404279883,103.8655312,ROLLS ROYCE PTE LTD,None
1910,1.369487905,103.9512329,BLK 541,None
1911,1.330047731,103.9620146,CEVA FREIGHT,None
1912,1.328173697,103.8945294,BLK 3021,None
1913,1.369141927,103.969751,OPP LOYANG VALLEY,None
1914,1.377684712,103.7510014,BLK 113,None
1915,1.35367436,103.956436,BLK 307A,None
1916,1.330339332,103.6749359,OPP PASIR LABA CAMP,None
1917,1.41426814,103.7551812,OPP JLN BUMBONG,None
1918,1.375968498,103.9410665,BLK 638,None
1919,1.33255187,103.7232557,BLK 65,None
1920,1.376848825,103.8348345,HORIZON GDNS,None
1921,1.291790853,103.8021067,BLK 163,None
1922,1.460502146,103.8061107,SUMITOMO BAKELITE S'PORE,None
1923,1.338116477,103.919386,OPP BLK 701,None
1924,1.323861369,103.6586138,SOON HENG GLASS,None
1925,1.331723321,103.9535603,BEF SIMEI AVE,None
1926,1.379985977,103.7723162,OPP BANGKIT STN,None
1927,1.317376178,103.9087746,AFT CHANGI RD,None
1928,1.287174072,103.8239871,TIONG BAHRU PK,None
1929,1.350011068,103.6838294,BLK 41,None
1930,1.349116915,103.9491446,THE HOLY TRINITY CH,None
1931,1.377178957,103.7469029,AFT HONG SAN TERR,None
1932,1.296352804,103.8107777,BLK 118,None
1933,1.425243484,103.845958,BLK 413,None
1934,1.387194202,103.9016401,BLK 227D,None
1935,1.374882451,103.8781552,REGENTVILLE,None
1936,1.346826507,103.9323574,TEMASEK POLY,None
1937,1.285039204,103.813616,OPP BT MERAH SEC SCH,None
1938,1.410921822,103.7795108,AFT MANDAI LAKE RD,None
1939,1.347802316,103.7360847,BEF BT BATOK RD,None
1940,1.41916658,103.8460539,BLK 432C,None
1941,1.39898965,103.7460142,BLK 625,None
1942,1.322648745,103.8639057,OPP BENDEMEER PR SCH,None
1943,1.310862723,103.7211635,CTRL FISH PROC FTY,None
1944,1.430554002,103.7926332,BLK 532,None
1945,1.306991734,103.8117345,CSC DEMPSEY CLUBHSE,None
1946,1.426177722,103.7488972,POH CHEONG CONCRETE PRODUCTS,None
1947,1.332717416,103.8440291,OLEANDER TWRS,None
1948,1.354702266,103.836314,BLK 23,None
1949,1.376970957,103.8376726,BLK 180,None
1950,1.341965085,103.6884619,BLK 932,None
1951,1.435737126,103.7957768,BLK 899A,None
1952,1.374181379,103.9723305,BEF LOYANG WAY 1,None
1953,1.36214016,103.9529893,BLK 484,None
1954,1.347294274,103.7712309,BT REGENCY,None
1955,1.304697313,103.9079648,OPP BLK 72,None
1956,1.347871883,103.9455486,BLK 101,None
1957,1.350192574,103.7036369,BLK 271 CP,None
1958,1.325312523,103.7375236,AFT TEBAN GDNS CRES,None
1959,1.292802816,103.8516486,CITY HALL STN EXIT B,None
1960,1.356587517,103.8741396,S'GOON SPORTS CPLX,None
1961,1.329009678,103.8896155,OPP ORION @ PAYA LEBAR,None
1962,1.345640187,103.7149655,BLK 209,None
1963,1.326593748,103.8549125,OPP NKF,None
1964,1.426004137,103.8321809,BLK 760,None
1965,1.29859434,103.7500376,PPL SHIPYARD,None
1966,1.346344397,103.7132969,BLK 207,None
1967,1.388845433,103.8870004,BLK 305D,None
1968,1.378468614,103.7697845,OPP ZHENGHUA PR SCH,None
1969,1.449767628,103.8240581,BLK 589D,None
1970,1.353143339,103.7048608,BLK 276B,None
1971,1.361279939,103.7645112,HILLVIEW HTS,None
1972,1.414651709,103.8235554,OPP SEMBAWANG AIR BASE,None
1973,1.388789155,103.8968023,OPP BLK 223D,None
1974,1.37157046,103.774595,OPP BLK 201,None
1975,1.327266075,103.9250754,OPP BLK 42,None
1976,1.360826693,103.8734256,BEF ST HELIER'S AVE,None
1977,1.375777006,103.7741514,BLK 223,None
1978,1.27838246,103.8377368,AFT HOSP DR,None
1979,1.369123585,103.8877766,OPP HOUGANG SWIM CPLX,None
1980,1.376805383,103.7553243,OPP BLK 26,None
1981,1.345682715,103.969998,OPP SATS CATERING,None
1982,1.311954497,103.6298896,TUAS TECHNOLOGY PK,None
1983,1.337512467,103.8875339,OPP ASIAWIDE IND BLDG,None
1984,1.355595053,103.8416437,WHITLEY SEC SCH,None
1985,1.368380457,103.8849967,BLK 615,None
1986,1.377489595,103.9365716,BLK 741,None
1987,1.290790712,103.7732375,HENG MUI KENG TERR,None
1988,1.431911537,103.7474577,OPP ENG HUA FURNITURE MFG PTE LTD,None
1989,1.42274149,103.8337104,BLK 776,None
1990,1.320697046,103.9401145,BLK 40,None
1991,1.431711636,103.7862474,ROSEWOOD,None
1992,1.305877987,103.8305289,ROYAL THAI EMBASSY,None
1993,1.360691913,103.9709081,CHANGI WOMEN'S PRISON,None
1994,1.452696524,103.824311,OPP BLK 507A,None
1995,1.380860158,103.9346928,AFT PASIR RIS IND DR 1,None
1996,1.328693786,103.794415,AVENUE VILLA,None
1997,1.435370996,103.8367804,BLK 227,None
1998,1.346352091,103.8498264,OPP GUANGYANG PRI SCH,None
1999,1.321136872,103.9459133,BLK 171,None
2000,1.270735318,103.8102001,TELOK BLANGAH STN,None
2001,1.280867914,103.8024814,BEF TELOK BLANGAH HILL PK,None
2002,1.298436255,103.7939308,TANGLIN TRUST SCH,None
2003,1.377573869,103.8625223,AFT BLK 5000,None
2004,1.344360826,103.840246,BRADDELL VIEW,None
2005,1.349556299,103.9669767,AFT CHANGI NTH ST 2,None
2006,1.349557657,103.7124271,BLK 213,None
2007,1.440642041,103.8005462,ADMIRALTY STN,None
2008,1.314228425,103.7148594,OPP SPC SVC STN,None
2009,1.44071707,103.7889975,RIVERSIDE SEC SCH,None
2010,1.296419822,103.7707875,NUS FAC OF DESIGN & ENV,None
2011,1.317797445,103.8077295,FARRER RD STN EXIT B,None
2012,1.396932639,103.9148222,BLK 649,None
2013,1.337667196,103.7389862,BLK 105,None
2014,1.332072008,103.9132449,BLK 608,None
2015,1.370884477,103.8852868,BLK 608,None
2016,1.388314799,103.8679359,AFT SELETAR RD,None
2017,1.458928132,103.8238937,SEMBAWANG CORP INDUSTRIES,None
2018,1.352254935,103.746781,BT BATOK POLYCLINIC,None
2019,1.332837658,103.6341301,OPP TUAS WEST ST,None
2020,1.293510885,103.8583494,OPP SUNTEC CONVENTION CTR,None
2021,1.307865442,103.9338148,OPP CABLE SKI PK,None
2022,1.34593887,103.6927395,BLK 844A CP,None
2023,1.380815232,103.9483041,BEF PASIR RIS RD,None
2024,1.321356608,103.9275874,OPP PANASONIC,None
2025,1.350885798,103.8824992,OPP THE MINTON,None
2026,1.434701507,103.7504774,AFT KRANJI CRES,None
2027,1.297434297,103.7812233,LIM SENG TJOE (LT 27),None
2028,1.341319448,103.7121683,OPP SUMMERDALE,None
2029,1.355743235,103.7684963,HUME PK CONDO,None
2030,1.414983961,103.7975271,OPP MANDAI AGROTECH PK,None
2031,1.318064891,103.9508043,OPP KEW GREEN CONDO,None
2032,1.373612898,103.8850564,BLK 670,None
2033,1.422109352,103.836837,BLK 647,None
2034,1.405395763,103.8089972,OPP UPP SELETAR RESVR,None
2035,1.36607652,103.8723189,BLK 126,None
2036,1.370788308,103.9302669,BEF TAMPINES IND AVE 5,None
